[{"uai":"0590925K","type":"ecole","name":"Ecole maternelle La Fontaine","commune":"Denain","secteur":"Privé","dep":"059","lat":3.37597,"lon":50.318389},{"uai":"0590926L","type":"ecole","name":"Ecole primaire Guynemer","commune":"Deûlémont","secteur":"Privé","dep":"059","lat":2.946388,"lon":50.735389},{"uai":"0590929P","type":"ecole","name":"Ecole primaire niveau 1 RPI 2","commune":"Doignies","secteur":"Privé","dep":"059","lat":3.0162,"lon":50.12847},{"uai":"0590939A","type":"ecole","name":"Ecole maternelle Leclerc de Hautecloque","commune":"Douai","secteur":"Privé","dep":"059","lat":3.12962,"lon":50.393577},{"uai":"0590946H","type":"ecole","name":"Ecole maternelle Madame de Sévigné","commune":"Douai","secteur":"Privé","dep":"059","lat":3.085339,"lon":50.361289},{"uai":"0590958W","type":"ecole","name":"Ecole maternelle Neptune","commune":"Dunkerque","secteur":"Privé","dep":"059","lat":2.37899,"lon":51.042674},{"uai":"0590960Y","type":"ecole","name":"Ecole maternelle Les Glacis","commune":"Dunkerque","secteur":"Privé","dep":"059","lat":2.38738,"lon":51.043628},{"uai":"0590985A","type":"ecole","name":"Ecole primaire","commune":"Elincourt","secteur":"Privé","dep":"059","lat":3.37083,"lon":50.043685},{"uai":"0590986B","type":"ecole","name":"Ecole primaire Louis Aragon","commune":"Emerchicourt","secteur":"Privé","dep":"059","lat":3.254251,"lon":50.312825},{"uai":"0590992H","type":"ecole","name":"Ecole primaire","commune":"Ennetières-en-Weppes","secteur":"Privé","dep":"059","lat":2.9395,"lon":50.635345},{"uai":"0591014G","type":"ecole","name":"Ecole élémentaire RPI 20","commune":"Oxelaëre","secteur":"Privé","dep":"059","lat":2.475969,"lon":50.788712},{"uai":"0591025U","type":"ecole","name":"Ecole élémentaire Jules Ferry niveau 2","commune":"Pérenchies","secteur":"Privé","dep":"059","lat":2.972601,"lon":50.671426},{"uai":"0591026V","type":"ecole","name":"Ecole élémentaire Jean Macé niveau 1","commune":"Pérenchies","secteur":"Privé","dep":"059","lat":2.97234,"lon":50.670078},{"uai":"0591032B","type":"ecole","name":"Ecole élémentaire la Meunerie","commune":"Dunkerque","secteur":"Privé","dep":"059","lat":2.324,"lon":51.017058},{"uai":"0591036F","type":"ecole","name":"Ecole élémentaire du Torpilleur","commune":"Dunkerque","secteur":"Privé","dep":"059","lat":2.33526,"lon":51.020559},{"uai":"0591062J","type":"ecole","name":"Ecole primaire Louise Thuliez","commune":"Preux-au-Bois","secteur":"Privé","dep":"059","lat":3.65726,"lon":50.163462},{"uai":"0591068R","type":"ecole","name":"Ecole élémentaire Maurice Noiret","commune":"Prouvy","secteur":"Privé","dep":"059","lat":3.451019,"lon":50.321955},{"uai":"0591085J","type":"ecole","name":"Ecole primaire Jean-Marie Fosse","commune":"Escarmain","secteur":"Privé","dep":"059","lat":3.54794,"lon":50.229098},{"uai":"0591108J","type":"ecole","name":"Ecole primaire","commune":"Esnes","secteur":"Privé","dep":"059","lat":3.311629,"lon":50.101027},{"uai":"0591120X","type":"ecole","name":"Ecole primaire Donat - Godin","commune":"Estreux","secteur":"Privé","dep":"059","lat":3.593321,"lon":50.348938},{"uai":"0591127E","type":"ecole","name":"Ecole primaire","commune":"Estrun","secteur":"Privé","dep":"059","lat":3.297139,"lon":50.24906},{"uai":"0591135N","type":"ecole","name":"Ecole maternelle Florian","commune":"Faches-Thumesnil","secteur":"Privé","dep":"059","lat":3.064381,"lon":50.606984},{"uai":"0591183R","type":"ecole","name":"Ecole maternelle Jean Jaurès","commune":"Villeneuve-d'Ascq","secteur":"Privé","dep":"059","lat":3.146487,"lon":50.668901},{"uai":"0591197F","type":"ecole","name":"Ecole primaire Le Centre","commune":"Floyon","secteur":"Privé","dep":"059","lat":3.884309,"lon":50.040235},{"uai":"0591215A","type":"ecole","name":"Ecole maternelle Les Lilas","commune":"Fourmies","secteur":"Privé","dep":"059","lat":4.06788,"lon":50.01778},{"uai":"0591218D","type":"ecole","name":"Ecole primaire Georges Brassens","commune":"Fourmies","secteur":"Privé","dep":"059","lat":4.04591,"lon":50.010326},{"uai":"0591219E","type":"ecole","name":"Ecole élémentaire Camille Dubocage","commune":"Fourmies","secteur":"Privé","dep":"059","lat":4.04536,"lon":50.0187},{"uai":"0591235X","type":"ecole","name":"Ecole maternelle Paul Langevin","commune":"Fresnes-sur-Escaut","secteur":"Privé","dep":"059","lat":3.578431,"lon":50.435469},{"uai":"0591283Z","type":"ecole","name":"Ecole maternelle Victor Hugo","commune":"Grande-Synthe","secteur":"Privé","dep":"059","lat":2.29728,"lon":51.012197},{"uai":"0591285B","type":"ecole","name":"Ecole maternelle Pierre et Marie Curie","commune":"Grande-Synthe","secteur":"Privé","dep":"059","lat":2.297069,"lon":51.015756},{"uai":"0591307A","type":"ecole","name":"Ecole élémentaire Roger Salengro","commune":"Hallennes-lez-Haubourdin","secteur":"Privé","dep":"059","lat":2.96394,"lon":50.613217},{"uai":"0591321R","type":"ecole","name":"Ecole primaire de Cataine","commune":"Hasnon","secteur":"Privé","dep":"059","lat":3.37438,"lon":50.416873},{"uai":"0591331B","type":"ecole","name":"Ecole maternelle Théophile Crapet","commune":"Haubourdin","secteur":"Privé","dep":"059","lat":2.991965,"lon":50.602816},{"uai":"0591343P","type":"ecole","name":"Ecole primaire Pasteur","commune":"Haussy","secteur":"Privé","dep":"059","lat":3.479201,"lon":50.217536},{"uai":"0591359G","type":"ecole","name":"Ecole maternelle Grands Champs","commune":"Haveluy","secteur":"Privé","dep":"059","lat":3.40457,"lon":50.347878},{"uai":"0591361J","type":"ecole","name":"Ecole primaire Antoine de Saint Exupéry","commune":"Haverskerque","secteur":"Privé","dep":"059","lat":2.541149,"lon":50.642202},{"uai":"0591394V","type":"ecole","name":"Ecole élémentaire Marie Curie","commune":"Hem","secteur":"Privé","dep":"059","lat":3.193961,"lon":50.666368},{"uai":"0591397Y","type":"ecole","name":"Ecole maternelle Jean de La Fontaine","commune":"Hem","secteur":"Privé","dep":"059","lat":3.191489,"lon":50.665587},{"uai":"0591406H","type":"ecole","name":"Ecole primaire No à Houx","commune":"Hergnies","secteur":"Privé","dep":"059","lat":3.534221,"lon":50.486691},{"uai":"0591434N","type":"ecole","name":"Ecole primaire Aimé Dewitte - Regroupement Pédagogique Intercommunal Concentré (RPC) de HOUDAIN-LEZ-BAVAY","commune":"Houdain-lez-Bavay","secteur":"Privé","dep":"059","lat":3.78301,"lon":50.315949},{"uai":"0591451G","type":"ecole","name":"Ecole primaire Jean Monnet","commune":"Illies","secteur":"Privé","dep":"059","lat":2.83164,"lon":50.560823},{"uai":"0591453J","type":"ecole","name":"Ecole maternelle RPI 25","commune":"Inchy","secteur":"Privé","dep":"059","lat":3.46499,"lon":50.121907},{"uai":"0591495E","type":"ecole","name":"Ecole maternelle Emilienne Bonnaire","commune":"Landrecies","secteur":"Privé","dep":"059","lat":3.68684,"lon":50.124463},{"uai":"0591500K","type":"ecole","name":"Ecole primaire Centre","commune":"Lecelles","secteur":"Privé","dep":"059","lat":3.393799,"lon":50.471504},{"uai":"0591506S","type":"ecole","name":"Ecole primaire","commune":"Ledringhem","secteur":"Privé","dep":"059","lat":2.44151,"lon":50.85553},{"uai":"0591514A","type":"ecole","name":"Ecole élémentaire Jean Mermoz","commune":"Lesquin","secteur":"Privé","dep":"059","lat":3.112189,"lon":50.587152},{"uai":"0591517D","type":"ecole","name":"Ecole primaire Martha Desrumaux","commune":"Leval","secteur":"Privé","dep":"059","lat":3.839491,"lon":50.189185},{"uai":"0591545J","type":"ecole","name":"Ecole élémentaire Viala-Voltaire","commune":"Lille","secteur":"Privé","dep":"059","lat":3.052071,"lon":50.619927},{"uai":"0591554U","type":"ecole","name":"Ecole maternelle Pauline Kergomard","commune":"Lille","secteur":"Privé","dep":"059","lat":3.07562,"lon":50.618007},{"uai":"0591568J","type":"ecole","name":"Ecole maternelle Ovide Decroly","commune":"Lille","secteur":"Privé","dep":"059","lat":3.052341,"lon":50.625757},{"uai":"0591574R","type":"ecole","name":"Ecole primaire Descartes - Montesquieu","commune":"Lille","secteur":"Privé","dep":"059","lat":3.08932,"lon":50.636005},{"uai":"0591584B","type":"ecole","name":"Ecole primaire Boufflers - Monge - Wicar","commune":"Lille","secteur":"Privé","dep":"059","lat":3.07131,"lon":50.632295},{"uai":"0591587E","type":"ecole","name":"Ecole maternelle Suzanne Lacore","commune":"Lille","secteur":"Privé","dep":"059","lat":3.09731,"lon":50.631895},{"uai":"0591613H","type":"ecole","name":"Ecole régionale du premier degré Ernest Couteaux","commune":"Lille","secteur":"Privé","dep":"059","lat":3.041451,"lon":50.621058},{"uai":"0591617M","type":"ecole","name":"Ecole élémentaire d'application Edouard Branly niveau 1","commune":"Lille","secteur":"Privé","dep":"059","lat":3.05489,"lon":50.63891},{"uai":"0591619P","type":"ecole","name":"Ecole maternelle Jean-Jacques Rousseau","commune":"Lille","secteur":"Privé","dep":"059","lat":3.05452,"lon":50.64248},{"uai":"0591622T","type":"ecole","name":"Ecole maternelle Auguste Comte","commune":"Lille","secteur":"Privé","dep":"059","lat":3.06638,"lon":50.643284},{"uai":"0591639L","type":"ecole","name":"Ecole maternelle d'application Jean Aicard","commune":"Lille","secteur":"Privé","dep":"059","lat":3.03116,"lon":50.619959},{"uai":"0591650Y","type":"ecole","name":"Ecole primaire Henri Matisse","commune":"Loffre","secteur":"Privé","dep":"059","lat":3.17358,"lon":50.355907},{"uai":"0591666R","type":"ecole","name":"Ecole maternelle Paul Bert","commune":"Lille","secteur":"Privé","dep":"059","lat":3.0046,"lon":50.648667},{"uai":"0591675A","type":"ecole","name":"Ecole primaire Jacques Prévert","commune":"La Longueville","secteur":"Privé","dep":"059","lat":3.85442,"lon":50.288638},{"uai":"0591681G","type":"ecole","name":"Ecole maternelle Victor Hugo","commune":"Loon-Plage","secteur":"Privé","dep":"059","lat":2.217651,"lon":50.995068},{"uai":"0591684K","type":"ecole","name":"Ecole primaire George Sand-Alphonse Daudet","commune":"Loos","secteur":"Privé","dep":"059","lat":3.006711,"lon":50.608895},{"uai":"0591688P","type":"ecole","name":"Ecole élémentaire Alice Sorlin","commune":"Loos","secteur":"Privé","dep":"059","lat":3.01674,"lon":50.615207},{"uai":"0591691T","type":"ecole","name":"Ecole maternelle La Fontaine","commune":"Loos","secteur":"Privé","dep":"059","lat":3.00955,"lon":50.618464},{"uai":"0591692U","type":"ecole","name":"Ecole maternelle Charles Perrault","commune":"Loos","secteur":"Privé","dep":"059","lat":3.01031,"lon":50.609614},{"uai":"0591707K","type":"ecole","name":"Ecole maternelle Anselme Lesage","commune":"Somain","secteur":"Privé","dep":"059","lat":3.272331,"lon":50.360701},{"uai":"0591731L","type":"ecole","name":"Ecole maternelle Hector Malot","commune":"Dunkerque","secteur":"Privé","dep":"059","lat":2.401199,"lon":51.045964},{"uai":"0591761U","type":"ecole","name":"Ecole maternelle Pascal","commune":"Marcq-en-Baroeul","secteur":"Privé","dep":"059","lat":3.078091,"lon":50.659871},{"uai":"0591765Y","type":"ecole","name":"Ecole primaire Louis Pasteur","commune":"Marcq-en-Ostrevent","secteur":"Privé","dep":"059","lat":3.24055,"lon":50.284942},{"uai":"0591814B","type":"ecole","name":"Ecole maternelle Faubourg de Mons","commune":"Maubeuge","secteur":"Privé","dep":"059","lat":3.974559,"lon":50.291709},{"uai":"0591852T","type":"ecole","name":"Ecole maternelle Louis Pergaud","commune":"Merville","secteur":"Privé","dep":"059","lat":2.637368,"lon":50.643338},{"uai":"0591875T","type":"ecole","name":"Ecole élémentaire Sévigné","commune":"Mons-en-Baroeul","secteur":"Privé","dep":"059","lat":3.10264,"lon":50.644468},{"uai":"0591881Z","type":"ecole","name":"Ecole primaire","commune":"Montay","secteur":"Privé","dep":"059","lat":3.53998,"lon":50.117434},{"uai":"0591887F","type":"ecole","name":"Ecole maternelle Victor Hugo","commune":"Montigny-en-Ostrevent","secteur":"Privé","dep":"059","lat":3.188089,"lon":50.368253},{"uai":"0591928A","type":"ecole","name":"Ecole élémentaire Suzanne Crapet","commune":"Nieppe","secteur":"Privé","dep":"059","lat":2.85577,"lon":50.698439},{"uai":"0591942R","type":"ecole","name":"Ecole élémentaire RPI 17","commune":"Noyelles-sur-Sambre","secteur":"Privé","dep":"059","lat":3.8005,"lon":50.156565},{"uai":"0591944T","type":"ecole","name":"Ecole primaire La Clé des Champs","commune":"Noyelles-sur-Selle","secteur":"Privé","dep":"059","lat":3.38567,"lon":50.286947},{"uai":"0591967T","type":"ecole","name":"Ecole primaire","commune":"Ors","secteur":"Privé","dep":"059","lat":3.63647,"lon":50.105865},{"uai":"0591997A","type":"ecole","name":"Ecole maternelle Jules Moriamez","commune":"Raismes","secteur":"Privé","dep":"059","lat":3.49157,"lon":50.387655},{"uai":"0592010P","type":"ecole","name":"Ecole primaire","commune":"Reumont","secteur":"Privé","dep":"059","lat":3.4849,"lon":50.082313},{"uai":"0592014U","type":"ecole","name":"Ecole élémentaire RPI 6","commune":"Ribécourt-la-Tour","secteur":"Privé","dep":"059","lat":3.12866,"lon":50.111227},{"uai":"0592046D","type":"ecole","name":"Ecole élémentaire Marcelin Berthelot","commune":"Dunkerque","secteur":"Privé","dep":"059","lat":2.422901,"lon":51.046993},{"uai":"0592051J","type":"ecole","name":"Ecole primaire Les Prés Verts","commune":"Rosult","secteur":"Privé","dep":"059","lat":3.36458,"lon":50.451074},{"uai":"0592069D","type":"ecole","name":"Ecole maternelle Albert Samain","commune":"Roubaix","secteur":"Privé","dep":"059","lat":3.18883,"lon":50.703751},{"uai":"0592071F","type":"ecole","name":"Ecole primaire Lucie Aubrac","commune":"Roubaix","secteur":"Privé","dep":"059","lat":3.15859,"lon":50.691984},{"uai":"0592076L","type":"ecole","name":"Ecole maternelle George Sand","commune":"Roubaix","secteur":"Privé","dep":"059","lat":3.15663,"lon":50.695493},{"uai":"0592083U","type":"ecole","name":"Ecole élémentaire Pierre de Roubaix","commune":"Roubaix","secteur":"Privé","dep":"059","lat":3.18793,"lon":50.689663},{"uai":"0592084V","type":"ecole","name":"Ecole élémentaire Montesquieu","commune":"Roubaix","secteur":"Privé","dep":"059","lat":3.17943,"lon":50.681334},{"uai":"0592085W","type":"ecole","name":"Ecole primaire Lavoisier","commune":"Roubaix","secteur":"Privé","dep":"059","lat":3.181339,"lon":50.682108},{"uai":"0592096H","type":"ecole","name":"Ecole primaire Ernest Renan","commune":"Roubaix","secteur":"Privé","dep":"059","lat":3.18444,"lon":50.689008},{"uai":"0592111Z","type":"ecole","name":"Ecole élémentaire Léon Liemans","commune":"Rousies","secteur":"Privé","dep":"059","lat":4.02145,"lon":50.275645},{"uai":"0592116E","type":"ecole","name":"Ecole maternelle Langevin - Wallon","commune":"Rousies","secteur":"Privé","dep":"059","lat":4.00515,"lon":50.271481},{"uai":"0592117F","type":"ecole","name":"Ecole primaire Louise Michel","commune":"Rouvignies","secteur":"Privé","dep":"059","lat":3.44227,"lon":50.326401},{"uai":"0592124N","type":"ecole","name":"Ecole primaire du Ridoir","commune":"Rumegies","secteur":"Privé","dep":"059","lat":3.35009,"lon":50.489995},{"uai":"0592150S","type":"ecole","name":"Ecole élémentaire Bracke-Desrousseaux","commune":"Saint-Amand-les-Eaux","secteur":"Privé","dep":"059","lat":3.43323,"lon":50.438313},{"uai":"0592189J","type":"ecole","name":"Ecole maternelle Langevin","commune":"Dunkerque","secteur":"Privé","dep":"059","lat":2.358281,"lon":51.027344},{"uai":"0592190K","type":"ecole","name":"Ecole maternelle Georges Vancauwenberghe","commune":"Dunkerque","secteur":"Privé","dep":"059","lat":2.33656,"lon":51.033103},{"uai":"0592245V","type":"ecole","name":"Ecole primaire des trois pommes","commune":"Sercus","secteur":"Privé","dep":"059","lat":2.4566,"lon":50.706379},{"uai":"0592288S","type":"ecole","name":"Ecole primaire Pierre Dewaele","commune":"Steene","secteur":"Privé","dep":"059","lat":2.37006,"lon":50.951407},{"uai":"0592290U","type":"ecole","name":"Ecole élémentaire Jean de La Fontaine","commune":"Steenvoorde","secteur":"Privé","dep":"059","lat":2.58626,"lon":50.807556},{"uai":"0592309P","type":"ecole","name":"Ecole primaire Anne Frank","commune":"Terdeghem","secteur":"Privé","dep":"059","lat":2.54015,"lon":50.798569},{"uai":"0592318Z","type":"ecole","name":"Ecole primaire Hainaut Baugnies","commune":"Thivencelle","secteur":"Privé","dep":"059","lat":3.632421,"lon":50.438943},{"uai":"0592319A","type":"ecole","name":"Ecole primaire Jules Ferry","commune":"Thumeries","secteur":"Privé","dep":"059","lat":3.072051,"lon":50.472746},{"uai":"0592326H","type":"ecole","name":"Ecole primaire La Claire Fontaine","commune":"Thun-Saint-Martin","secteur":"Privé","dep":"059","lat":3.296729,"lon":50.22666},{"uai":"0592350J","type":"ecole","name":"Ecole élémentaire Jacquard","commune":"Tourcoing","secteur":"Privé","dep":"059","lat":3.14785,"lon":50.719373},{"uai":"0592364Z","type":"ecole","name":"Ecole maternelle Marcel Henaux","commune":"Tourcoing","secteur":"Privé","dep":"059","lat":3.16958,"lon":50.734976},{"uai":"0592367C","type":"ecole","name":"Ecole primaire Jean Macé","commune":"Tourcoing","secteur":"Privé","dep":"059","lat":3.15263,"lon":50.714955},{"uai":"0592397K","type":"ecole","name":"Ecole primaire Gérard Deligny","commune":"Uxem","secteur":"Privé","dep":"059","lat":2.484239,"lon":51.021012},{"uai":"0592400N","type":"ecole","name":"Ecole maternelle Anna Foucart","commune":"Valenciennes","secteur":"Privé","dep":"059","lat":3.51416,"lon":50.368795},{"uai":"0592402R","type":"ecole","name":"Groupe Scolaire Saint Waast - Jean Mineur","commune":"Valenciennes","secteur":"Privé","dep":"059","lat":3.488094,"lon":50.364238},{"uai":"0592421L","type":"ecole","name":"Ecole maternelle Hélène Boucher","commune":"Valenciennes","secteur":"Privé","dep":"059","lat":3.51381,"lon":50.342843},{"uai":"0592432Y","type":"ecole","name":"Groupe Scolaire Alain Decaux","commune":"Vendeville","secteur":"Privé","dep":"059","lat":3.0778,"lon":50.574344},{"uai":"0592434A","type":"ecole","name":"Ecole primaire Victor Hugo","commune":"Verchain-Maugré","secteur":"Privé","dep":"059","lat":3.477941,"lon":50.267775},{"uai":"0592493P","type":"ecole","name":"Ecole primaire Roger Marcotte","commune":"Wallon-Cappel","secteur":"Privé","dep":"059","lat":2.47305,"lon":50.726661},{"uai":"0592496T","type":"ecole","name":"Groupe scolaire Pasteur-Ségur","commune":"Wambrechies","secteur":"Privé","dep":"059","lat":3.05547,"lon":50.691383},{"uai":"0592498V","type":"ecole","name":"Ecole maternelle Louis Leroy","commune":"Wambrechies","secteur":"Privé","dep":"059","lat":3.051669,"lon":50.685074},{"uai":"0592516P","type":"ecole","name":"Ecole élémentaire RPI 11","commune":"Wattignies-la-Victoire","secteur":"Privé","dep":"059","lat":4.0102,"lon":50.200035},{"uai":"0592535K","type":"ecole","name":"Ecole primaire La Fontaine","commune":"Wasnes-au-Bac","secteur":"Privé","dep":"059","lat":3.25786,"lon":50.269684},{"uai":"0592547Y","type":"ecole","name":"Ecole primaire Jean Macé","commune":"Wattrelos","secteur":"Privé","dep":"059","lat":3.20615,"lon":50.697355},{"uai":"0592557J","type":"ecole","name":"Ecole primaire Henri Matisse","commune":"Wavrechain-sous-Faulx","secteur":"Privé","dep":"059","lat":3.28449,"lon":50.2725},{"uai":"0592561N","type":"ecole","name":"Ecole élémentaire Léon Gambetta","commune":"Waziers","secteur":"Privé","dep":"059","lat":3.116889,"lon":50.386991},{"uai":"0592567V","type":"ecole","name":"Ecole maternelle Joliot-Curie","commune":"Waziers","secteur":"Privé","dep":"059","lat":3.10545,"lon":50.384483},{"uai":"0592575D","type":"ecole","name":"Ecole primaire La Libaude","commune":"Wicres","secteur":"Privé","dep":"059","lat":2.86586,"lon":50.570944},{"uai":"0592584N","type":"ecole","name":"Ecole primaire de l'Houtland","commune":"Winnezeele","secteur":"Privé","dep":"059","lat":2.551289,"lon":50.840576},{"uai":"0592670G","type":"ecole","name":"Ecole primaire Françoise Dolto","commune":"Croix","secteur":"Privé","dep":"059","lat":3.14845,"lon":50.684036},{"uai":"0592682V","type":"ecole","name":"Ecole élémentaire Hélène Boucher","commune":"Mons-en-Baroeul","secteur":"Privé","dep":"059","lat":3.11345,"lon":50.638278},{"uai":"0592690D","type":"ecole","name":"Ecole élémentaire Martin-Martine","commune":"Cambrai","secteur":"Privé","dep":"059","lat":3.26177,"lon":50.160322},{"uai":"0592701R","type":"ecole","name":"Ecole maternelle Emile Zola","commune":"Valenciennes","secteur":"Privé","dep":"059","lat":3.48323,"lon":50.359878},{"uai":"0592706W","type":"ecole","name":"Ecole élémentaire Paul Godin","commune":"Sequedin","secteur":"Privé","dep":"059","lat":2.98406,"lon":50.627523},{"uai":"0592707X","type":"ecole","name":"Ecole maternelle Edouard Branly","commune":"Tourcoing","secteur":"Privé","dep":"059","lat":3.14677,"lon":50.731188},{"uai":"0592733A","type":"college","name":"Collège André Streinger","commune":"Douai","secteur":"Privé","dep":"059","lat":3.08558,"lon":50.361493},{"uai":"0592890W","type":"college","name":"Collège privé Saint Joseph","commune":"Lille","secteur":"Privé","dep":"059","lat":3.025679,"lon":50.61639},{"uai":"0592900G","type":"college","name":"Collège privé Notre-Dame de La Providence","commune":"Orchies","secteur":"Privé","dep":"059","lat":3.24329,"lon":50.47822},{"uai":"0592911U","type":"college","name":"Collège privé Saint Joseph","commune":"Saint-André-lez-Lille","secteur":"Privé","dep":"059","lat":3.05376,"lon":50.662618},{"uai":"0592930P","type":"college","name":"Collège privé Immaculée Conception","commune":"Bailleul","secteur":"Privé","dep":"059","lat":2.729771,"lon":50.739086},{"uai":"0592932S","type":"lycee","name":"Lycée général privé Sainte Marie","commune":"Beaucamps-Ligny","secteur":"Privé","dep":"059","lat":2.918751,"lon":50.601886},{"uai":"0592964B","type":"lycee","name":"Lycée professionnel privé Léonard de Vinci","commune":"Roubaix","secteur":"Privé","dep":"059","lat":3.181115,"lon":50.694216},{"uai":"0592966D","type":"lycee","name":"Lycée polyvalent privé EIC Jehanne d'Arc","commune":"Tourcoing","secteur":"Privé","dep":"059","lat":3.14999,"lon":50.721175},{"uai":"0593071T","type":"lycee","name":"Lycée polyvalent privé Deforest de Lewarde","commune":"Douai","secteur":"Privé","dep":"059","lat":3.08184,"lon":50.371579},{"uai":"0593106F","type":"lycee","name":"Lycée général privé Sainte Odile","commune":"Lambersart","secteur":"Privé","dep":"059","lat":3.026851,"lon":50.638133},{"uai":"0593109J","type":"lycee","name":"Lycée général privé Notre-Dame de La Paix","commune":"Lille","secteur":"Privé","dep":"059","lat":3.062111,"lon":50.642901},{"uai":"0593131H","type":"college","name":"Collège privé Saint Joseph","commune":"Lille","secteur":"Privé","dep":"059","lat":3.107342,"lon":50.62929},{"uai":"0593138R","type":"lycee","name":"Lycée général privé Saint Michel","commune":"Solesmes","secteur":"Privé","dep":"059","lat":3.50417,"lon":50.183594},{"uai":"0593141U","type":"lycee","name":"Lycée général privé Notre-Dame","commune":"Valenciennes","secteur":"Privé","dep":"059","lat":3.5301,"lon":50.35912},{"uai":"0593143W","type":"college","name":"Collège privé Sacré-Coeur","commune":"Dunkerque","secteur":"Privé","dep":"059","lat":2.3453,"lon":51.029085},{"uai":"0593185S","type":"college","name":"Collège Anatole France","commune":"Sin-le-Noble","secteur":"Privé","dep":"059","lat":3.114949,"lon":50.361329},{"uai":"0593198F","type":"college","name":"Collège privé Communautaire","commune":"Villeneuve-d'Ascq","secteur":"Privé","dep":"059","lat":3.13539,"lon":50.656871},{"uai":"0593230R","type":"lycee","name":"Section d'enseignement général et professionnel adapté du Collège Jules Ferry","commune":"Haubourdin","secteur":"Privé","dep":"059","lat":2.99174,"lon":50.613297},{"uai":"0593232T","type":"lycee","name":"Section d'enseignement général et professionnel adapté du Collège Albert Schweitzer","commune":"La Bassée","secteur":"Privé","dep":"059","lat":2.811156,"lon":50.53522},{"uai":"0593237Y","type":"college","name":"Collège Gernez Rieux","commune":"Ronchin","secteur":"Privé","dep":"059","lat":3.091457,"lon":50.599006},{"uai":"0593240B","type":"college","name":"Collège Gambetta","commune":"Lys-lez-Lannoy","secteur":"Privé","dep":"059","lat":3.215421,"lon":50.678707},{"uai":"0593255T","type":"lycee","name":"Lycée d'enseignement général et technologique agricole du Nord - site de Douai","commune":"Douai","secteur":"Privé","dep":"059","lat":3.0656,"lon":50.389689},{"uai":"0593296M","type":"ecole","name":"Ecole maternelle Jacques Prévert","commune":"Courchelettes","secteur":"Privé","dep":"059","lat":3.0619,"lon":50.343417},{"uai":"0593395V","type":"lycee","name":"Lycée d'enseignement général, technologique et professionnel agricole de Lomme","commune":"Lille","secteur":"Privé","dep":"059","lat":2.99383,"lon":50.650365},{"uai":"0593462T","type":"lycee","name":"Lycée d'enseignement général et technologique agricole du Nord - site des Sains-du-Nord","commune":"Sains-du-Nord","secteur":"Privé","dep":"059","lat":4.005229,"lon":50.090993},{"uai":"0593463U","type":"ecole","name":"Ecole maternelle Jules Verne","commune":"Dunkerque","secteur":"Privé","dep":"059","lat":2.427541,"lon":51.04857},{"uai":"0593475G","type":"college","name":"Collège Léon Blum","commune":"Wavrin","secteur":"Privé","dep":"059","lat":2.939927,"lon":50.571997},{"uai":"0593476H","type":"college","name":"Collège Jean Mermoz","commune":"Faches-Thumesnil","secteur":"Privé","dep":"059","lat":3.07204,"lon":50.596106},{"uai":"0593485T","type":"ecole","name":"Ecole primaire du Val d'Yser","commune":"Herzeele","secteur":"Privé","dep":"059","lat":2.526209,"lon":50.886669},{"uai":"0593494C","type":"college","name":"Collège Boris Vian","commune":"Coudekerque-Branche","secteur":"Privé","dep":"059","lat":2.39009,"lon":51.016936},{"uai":"0593525L","type":"ecole","name":"Ecole élémentaire Kennedy","commune":"Cambrai","secteur":"Privé","dep":"059","lat":3.26416,"lon":50.169339},{"uai":"0593534W","type":"ecole","name":"Ecole primaire Pierre Brossolette","commune":"Flines-lez-Raches","secteur":"Privé","dep":"059","lat":3.19201,"lon":50.420861},{"uai":"0593539B","type":"ecole","name":"Ecole primaire Berthelot - Jules Verne","commune":"Lille","secteur":"Privé","dep":"059","lat":3.097071,"lon":50.631358},{"uai":"0593541D","type":"ecole","name":"Ecole élémentaire Lalo - Clement","commune":"Lille","secteur":"Privé","dep":"059","lat":3.07295,"lon":50.630629},{"uai":"0593542E","type":"ecole","name":"Ecole élémentaire Victor Duruy","commune":"Lille","secteur":"Privé","dep":"059","lat":3.069031,"lon":50.622532},{"uai":"0593543F","type":"ecole","name":"Groupe scolaire Joséphine Baker","commune":"Marcq-en-Baroeul","secteur":"Privé","dep":"059","lat":3.072101,"lon":50.665913},{"uai":"0593563C","type":"ecole","name":"Ecole maternelle Chaperon Rouge","commune":"Fourmies","secteur":"Privé","dep":"059","lat":4.04112,"lon":50.012587},{"uai":"0593567G","type":"ecole","name":"Ecole primaire Arago - Jacquart","commune":"Lille","secteur":"Privé","dep":"059","lat":3.06088,"lon":50.621672},{"uai":"0593571L","type":"lycee","name":"Section d'enseignement général et professionnel adapté du Collège Boris Vian","commune":"Coudekerque-Branche","secteur":"Privé","dep":"059","lat":2.390609,"lon":51.017156},{"uai":"0593575R","type":"ecole","name":"Ecole primaire Louise de Bettignies","commune":"Villeneuve-d'Ascq","secteur":"Privé","dep":"059","lat":3.14979,"lon":50.624387},{"uai":"0593602V","type":"ecole","name":"Ecole primaire des Valettes","commune":"Bourghelles","secteur":"Privé","dep":"059","lat":3.244019,"lon":50.565256},{"uai":"0593603W","type":"ecole","name":"Ecole élémentaire Basuyaux","commune":"Aniche","secteur":"Privé","dep":"059","lat":3.25282,"lon":50.329827},{"uai":"0593617L","type":"ecole","name":"Ecole élémentaire Simons","commune":"Emmerin","secteur":"Privé","dep":"059","lat":2.99705,"lon":50.593125},{"uai":"0593618M","type":"ecole","name":"Ecole primaire","commune":"Holque","secteur":"Privé","dep":"059","lat":2.20342,"lon":50.854815},{"uai":"0593622S","type":"ecole","name":"Ecole primaire Champêtre Des Linden","commune":"Eringhem","secteur":"Privé","dep":"059","lat":2.3401,"lon":50.895719},{"uai":"0593625V","type":"ecole","name":"Ecole élémentaire Hostetter","commune":"Masnières","secteur":"Privé","dep":"059","lat":3.212681,"lon":50.11338},{"uai":"0593644R","type":"ecole","name":"Ecole élémentaire Jules Ferry","commune":"Attiches","secteur":"Privé","dep":"059","lat":3.062059,"lon":50.52035},{"uai":"0593647U","type":"ecole","name":"Ecole primaire Marie Curie","commune":"Villers-en-Cauchies","secteur":"Privé","dep":"059","lat":3.40291,"lon":50.226609},{"uai":"0593662K","type":"college","name":"Collège Jean Demailly","commune":"Seclin","secteur":"Privé","dep":"059","lat":3.01488,"lon":50.54375},{"uai":"0593678C","type":"college","name":"Collège Jean Moulin","commune":"Wallers","secteur":"Privé","dep":"059","lat":3.398418,"lon":50.374001},{"uai":"0593680E","type":"college","name":"Collège Joséphine Baker","commune":"Valenciennes","secteur":"Privé","dep":"059","lat":3.503822,"lon":50.355747},{"uai":"0593697Y","type":"ecole","name":"Ecole primaire privée Saint Bernard","commune":"Cambrai","secteur":"Privé","dep":"059","lat":3.23848,"lon":50.180034},{"uai":"0593700B","type":"ecole","name":"Ecole primaire privée Sacré-Coeur","commune":"Camphin-en-Pévèle","secteur":"Privé","dep":"059","lat":3.26235,"lon":50.592945},{"uai":"0593708K","type":"ecole","name":"Ecole primaire privée Sainte Marie","commune":"Chéreng","secteur":"Privé","dep":"059","lat":3.20784,"lon":50.612019},{"uai":"0593713R","type":"ecole","name":"Ecole primaire privée Saint Chrysole","commune":"Comines","secteur":"Privé","dep":"059","lat":3.006479,"lon":50.764173},{"uai":"0593715T","type":"ecole","name":"Ecole primaire privée La Salle","commune":"Coudekerque-Branche","secteur":"Privé","dep":"059","lat":2.39267,"lon":51.024345},{"uai":"0593719X","type":"ecole","name":"Ecole primaire privée Saint Joseph","commune":"Coutiches","secteur":"Privé","dep":"059","lat":3.1993,"lon":50.450931},{"uai":"0593720Y","type":"ecole","name":"Ecole primaire privée Don Bosco","commune":"Croix","secteur":"Privé","dep":"059","lat":3.15206,"lon":50.684123},{"uai":"0593757N","type":"ecole","name":"Ecole primaire privée Sacré-Coeur","commune":"Auchy-lez-Orchies","secteur":"Privé","dep":"059","lat":3.20595,"lon":50.477591},{"uai":"0593760S","type":"ecole","name":"Ecole primaire privée Jeanne d'Arc-Fénelon","commune":"Avesnes-sur-Helpe","secteur":"Privé","dep":"059","lat":3.93381,"lon":50.122737},{"uai":"0593771D","type":"ecole","name":"Ecole primaire privée Sainte Marie","commune":"Beaucamps-Ligny","secteur":"Privé","dep":"059","lat":2.91739,"lon":50.603618},{"uai":"0593778L","type":"ecole","name":"Ecole primaire privée Saint Louis","commune":"Bois-Grenier","secteur":"Privé","dep":"059","lat":2.875091,"lon":50.648345},{"uai":"0593784T","type":"ecole","name":"Ecole primaire privée Saint Joseph","commune":"Bourbourg","secteur":"Privé","dep":"059","lat":2.194109,"lon":50.944573},{"uai":"0593790Z","type":"ecole","name":"Ecole primaire privée Notre-Dame de La Treille","commune":"Faches-Thumesnil","secteur":"Privé","dep":"059","lat":3.07582,"lon":50.589321},{"uai":"0593791A","type":"ecole","name":"Ecole primaire privée Notre-Dame","commune":"Ferrière-la-Grande","secteur":"Privé","dep":"059","lat":3.99212,"lon":50.255535},{"uai":"0593814A","type":"ecole","name":"Ecole primaire privée Saint André","commune":"Houplines","secteur":"Privé","dep":"059","lat":2.9014,"lon":50.688252},{"uai":"0593826N","type":"ecole","name":"Ecole primaire privée Jeanne d'Arc","commune":"Leers","secteur":"Privé","dep":"059","lat":3.24626,"lon":50.679779},{"uai":"0593853T","type":"ecole","name":"Ecole primaire privée Saint Pierre","commune":"Steenbecque","secteur":"Privé","dep":"059","lat":2.48467,"lon":50.672605},{"uai":"0593854U","type":"ecole","name":"Ecole primaire privée Saint Pierre","commune":"Toufflers","secteur":"Privé","dep":"059","lat":3.22884,"lon":50.659433},{"uai":"0593870L","type":"ecole","name":"Ecole primaire privée Sainte Marie","commune":"Valenciennes","secteur":"Privé","dep":"059","lat":3.52086,"lon":50.36084},{"uai":"0593872N","type":"ecole","name":"Ecole primaire privée Saint Henri","commune":"Villeneuve-d'Ascq","secteur":"Privé","dep":"059","lat":3.138369,"lon":50.660196},{"uai":"0593879W","type":"ecole","name":"Ecole primaire privée Notre-Dame","commune":"Warhem","secteur":"Privé","dep":"059","lat":2.49044,"lon":50.976305},{"uai":"0593882Z","type":"ecole","name":"Insititution du Sacré Coeur","commune":"Watten","secteur":"Privé","dep":"059","lat":2.211019,"lon":50.833942},{"uai":"0593893L","type":"ecole","name":"Ecole primaire privée Sainte Anne","commune":"Lille","secteur":"Privé","dep":"059","lat":2.98844,"lon":50.647825},{"uai":"0593895N","type":"ecole","name":"Ecole primaire privée Sainte Germaine","commune":"Looberghe","secteur":"Privé","dep":"059","lat":2.27533,"lon":50.914982},{"uai":"0593908C","type":"ecole","name":"Ecole primaire privée Saint Joseph","commune":"Marquette-lez-Lille","secteur":"Privé","dep":"059","lat":3.06554,"lon":50.672798},{"uai":"0593912G","type":"ecole","name":"Ecole primaire privée Sainte Marthe","commune":"Méteren","secteur":"Privé","dep":"059","lat":2.69216,"lon":50.741885},{"uai":"0593921S","type":"ecole","name":"Ecole primaire privée Sainte Marie","commune":"Pérenchies","secteur":"Privé","dep":"059","lat":2.97793,"lon":50.668783},{"uai":"0593925W","type":"ecole","name":"Ecole primaire privée Sainte-Famille","commune":"Raismes","secteur":"Privé","dep":"059","lat":3.48325,"lon":50.391439},{"uai":"0593953B","type":"ecole","name":"Ecole primaire privée Sacré-Coeur","commune":"Lille","secteur":"Privé","dep":"059","lat":3.08682,"lon":50.633963},{"uai":"0593968T","type":"ecole","name":"Ecole primaire privée Sainte Anne-Saint Joachim","commune":"Lille","secteur":"Privé","dep":"059","lat":3.09361,"lon":50.649592},{"uai":"0593977C","type":"ecole","name":"Ecole primaire privée Notre-Dame","commune":"Loos","secteur":"Privé","dep":"059","lat":3.01356,"lon":50.61729},{"uai":"0593988P","type":"ecole","name":"Ecole primaire privée Saint Joseph","commune":"Morbecque","secteur":"Privé","dep":"059","lat":2.517791,"lon":50.693045},{"uai":"0593992U","type":"college","name":"Collège Antoine de Saint-Exupéry","commune":"Steenvoorde","secteur":"Privé","dep":"059","lat":2.589169,"lon":50.808486},{"uai":"0593994W","type":"ecole","name":"Ecole primaire privée Sacré-Coeur","commune":"Anzin","secteur":"Privé","dep":"059","lat":3.50511,"lon":50.371296},{"uai":"0594000C","type":"ecole","name":"Ecole primaire privée Louise Jonglez","commune":"Le Doulieu","secteur":"Privé","dep":"059","lat":2.71727,"lon":50.681829},{"uai":"0594014T","type":"ecole","name":"Ecole primaire privée Jeanne d'Arc","commune":"Fournes-en-Weppes","secteur":"Privé","dep":"059","lat":2.88608,"lon":50.58515},{"uai":"0594033N","type":"ecole","name":"Ecole primaire privée Sacré-Coeur","commune":"Hautmont","secteur":"Privé","dep":"059","lat":3.92406,"lon":50.248877},{"uai":"0594043Z","type":"ecole","name":"Ecole primaire privée Sainte Bernadette","commune":"Jeumont","secteur":"Privé","dep":"059","lat":4.103869,"lon":50.295592},{"uai":"0594068B","type":"ecole","name":"Ecole primaire privée Saint Louis","commune":"Roubaix","secteur":"Privé","dep":"059","lat":3.17761,"lon":50.69447},{"uai":"0594087X","type":"ecole","name":"Ecole primaire privée Sainte Famille","commune":"Santes","secteur":"Privé","dep":"059","lat":2.955939,"lon":50.59707},{"uai":"0594097H","type":"ecole","name":"Ecole primaire privée Sainte Clotilde","commune":"Tourcoing","secteur":"Privé","dep":"059","lat":3.181819,"lon":50.740126},{"uai":"0594108V","type":"ecole","name":"Ecole primaire privée Françoise Dolto","commune":"Tourcoing","secteur":"Privé","dep":"059","lat":3.1488,"lon":50.715603},{"uai":"0594129T","type":"ecole","name":"Ecole primaire privée Saint Vaast Robersart","commune":"Wambrechies","secteur":"Privé","dep":"059","lat":3.046139,"lon":50.686639},{"uai":"0594168K","type":"college","name":"Collège Jean Zay","commune":"Feignies","secteur":"Privé","dep":"059","lat":3.92041,"lon":50.292663},{"uai":"0594194N","type":"ecole","name":"Ecole primaire Victor Hugo","commune":"Houplin-Ancoisne","secteur":"Privé","dep":"059","lat":3.00083,"lon":50.561927},{"uai":"0594200V","type":"ecole","name":"Ecole primaire Lamartine - Blanche Neige","commune":"Maubeuge","secteur":"Privé","dep":"059","lat":3.96384,"lon":50.288559},{"uai":"0594217N","type":"ecole","name":"Ecole élémentaire Jean Jaurès","commune":"Dunkerque","secteur":"Privé","dep":"059","lat":2.34387,"lon":51.026804},{"uai":"0594231D","type":"ecole","name":"Ecole maternelle Jean de La Fontaine","commune":"Coudekerque-Branche","secteur":"Privé","dep":"059","lat":2.39519,"lon":51.019253},{"uai":"0594253C","type":"ecole","name":"Ecole maternelle Jean Zay","commune":"Cuincy","secteur":"Privé","dep":"059","lat":3.047221,"lon":50.382488},{"uai":"0594266S","type":"ecole","name":"Ecole primaire Léon Lambert","commune":"Coutiches","secteur":"Privé","dep":"059","lat":3.199921,"lon":50.453331},{"uai":"0594292V","type":"lycee","name":"Section d'enseignement général et professionnel adapté du Collège Rosa Parks","commune":"Roubaix","secteur":"Privé","dep":"059","lat":3.186461,"lon":50.70143},{"uai":"0594293W","type":"college","name":"Collège Albert Roussel","commune":"Tourcoing","secteur":"Privé","dep":"059","lat":3.16844,"lon":50.723101},{"uai":"0594302F","type":"lycee","name":"Lycée professionnel François Mansart - Lycée des Métiers du Bâtiment","commune":"Marly","secteur":"Privé","dep":"059","lat":3.55519,"lon":50.344035},{"uai":"0594337U","type":"ecole","name":"Ecole maternelle Pasteur","commune":"Denain","secteur":"Privé","dep":"059","lat":3.411301,"lon":50.319279},{"uai":"0594346D","type":"ecole","name":"Ecole maternelle du Parc","commune":"Erquinghem-Lys","secteur":"Privé","dep":"059","lat":2.84767,"lon":50.679123},{"uai":"0594380R","type":"lycee","name":"Etablissement régional d'enseignement adapté déficients intellectuels légers handicapés sociaux Colette Magny","commune":"Lys-lez-Lannoy","secteur":"Privé","dep":"059","lat":3.2164,"lon":50.679127},{"uai":"0594389A","type":"college","name":"Collège Anne Frank","commune":"Roubaix","secteur":"Privé","dep":"059","lat":3.175801,"lon":50.694045},{"uai":"0594401N","type":"college","name":"Collège Val de La Sensée","commune":"Arleux","secteur":"Privé","dep":"059","lat":3.09933,"lon":50.283986},{"uai":"0594408W","type":"college","name":"Collège Germinal","commune":"Raismes","secteur":"Privé","dep":"059","lat":3.481629,"lon":50.395569},{"uai":"0594447N","type":"ecole","name":"Ecole maternelle Pierre et Marie Curie","commune":"Haubourdin","secteur":"Privé","dep":"059","lat":2.976611,"lon":50.614835},{"uai":"0594454W","type":"ecole","name":"Ecole maternelle des Longs Prés","commune":"Louvroil","secteur":"Privé","dep":"059","lat":3.948211,"lon":50.256731},{"uai":"0594468L","type":"ecole","name":"Ecole primaire Auguste Herbin","commune":"Le Cateau-Cambrésis","secteur":"Privé","dep":"059","lat":3.54389,"lon":50.106148},{"uai":"0594471P","type":"ecole","name":"Ecole élémentaire Kleber","commune":"Dunkerque","secteur":"Privé","dep":"059","lat":2.405679,"lon":51.051357},{"uai":"0594489J","type":"ecole","name":"Ecole primaire RPI 26","commune":"Thun-l'Evêque","secteur":"Privé","dep":"059","lat":3.28472,"lon":50.226492},{"uai":"0594525Y","type":"college","name":"Collège Le Triolo","commune":"Villeneuve-d'Ascq","secteur":"Privé","dep":"059","lat":3.13918,"lon":50.616127},{"uai":"0594527A","type":"college","name":"Collège Maxence Van Der Meersch","commune":"Mouvaux","secteur":"Privé","dep":"059","lat":3.131189,"lon":50.704916},{"uai":"0594531E","type":"lycee","name":"Section d'enseignement général et professionnel adapté du Collège Jean Deconinck","commune":"Dunkerque","secteur":"Privé","dep":"059","lat":2.33044,"lon":51.027896},{"uai":"0594569W","type":"ecole","name":"Ecole maternelle Paul Langevin","commune":"La Sentinelle","secteur":"Privé","dep":"059","lat":3.486719,"lon":50.349443},{"uai":"0594585N","type":"ecole","name":"Ecole primaire du Fleuri d'Alcy","commune":"Auchy-lez-Orchies","secteur":"Privé","dep":"059","lat":3.20461,"lon":50.477083},{"uai":"0594596A","type":"ecole","name":"Ecole élémentaire Jean Jaurès","commune":"Fretin","secteur":"Privé","dep":"059","lat":3.13461,"lon":50.559136},{"uai":"0594601F","type":"ecole","name":"Ecole élémentaire Arthur Cornette","commune":"Nieppe","secteur":"Privé","dep":"059","lat":2.844261,"lon":50.702179},{"uai":"0594603H","type":"ecole","name":"Ecole élémentaire Robert Anselin","commune":"Ostricourt","secteur":"Privé","dep":"059","lat":3.02552,"lon":50.463991},{"uai":"0594630M","type":"lycee","name":"Section d'enseignement général et professionnel adapté du Collège Jean Demailly de Seclin","commune":"Seclin","secteur":"Privé","dep":"059","lat":3.01488,"lon":50.54375},{"uai":"0594634S","type":"college","name":"Collège Théodore Monod","commune":"Roubaix","secteur":"Privé","dep":"059","lat":3.18259,"lon":50.672117},{"uai":"0594637V","type":"lycee","name":"Section d'enseignement général et professionnel adapté du Collège Maxime Deyts","commune":"Bailleul","secteur":"Privé","dep":"059","lat":2.73673,"lon":50.743445},{"uai":"0594650J","type":"college","name":"Collège Jacques Prévert","commune":"Watten","secteur":"Privé","dep":"059","lat":2.216581,"lon":50.838716},{"uai":"0594652L","type":"lycee","name":"Lycée professionnel des Plaines du Nord","commune":"Grande-Synthe","secteur":"Privé","dep":"059","lat":2.31175,"lon":51.014591},{"uai":"0594683V","type":"ecole","name":"Ecole élémentaire Jules Ferry","commune":"Douchy-les-Mines","secteur":"Privé","dep":"059","lat":3.39806,"lon":50.29795},{"uai":"0594691D","type":"ecole","name":"Groupe scolaire le Petit Prince","commune":"Haubourdin","secteur":"Privé","dep":"059","lat":2.984239,"lon":50.608048},{"uai":"0594693F","type":"ecole","name":"Ecole maternelle Crepin-Saint Aubert","commune":"Hordain","secteur":"Privé","dep":"059","lat":3.314641,"lon":50.263678},{"uai":"0594703S","type":"ecole","name":"Ecole élémentaire Derain - Bettignies","commune":"Marcq-en-Baroeul","secteur":"Privé","dep":"059","lat":3.07894,"lon":50.660305},{"uai":"0594719J","type":"ecole","name":"Ecole maternelle Charles Perrault","commune":"Ronchin","secteur":"Privé","dep":"059","lat":3.088109,"lon":50.595942},{"uai":"0594782C","type":"ecole","name":"Ecole maternelle Toulouse-Lautrec","commune":"Villeneuve-d'Ascq","secteur":"Privé","dep":"059","lat":3.14319,"lon":50.616847},{"uai":"0594787H","type":"ecole","name":"Ecole élémentaire du Centre","commune":"Wallers","secteur":"Privé","dep":"059","lat":3.39204,"lon":50.375365},{"uai":"0594788J","type":"ecole","name":"Ecole maternelle Madame de Sévigné","commune":"Wambrechies","secteur":"Privé","dep":"059","lat":3.04024,"lon":50.685605},{"uai":"0594791M","type":"ecole","name":"Ecole primaire","commune":"Les Rues-des-Vignes","secteur":"Privé","dep":"059","lat":3.2391,"lon":50.096525},{"uai":"0594846X","type":"ecole","name":"Ecole élémentaire Jean Jaurès","commune":"Anzin","secteur":"Privé","dep":"059","lat":3.51751,"lon":50.378082},{"uai":"0594851C","type":"ecole","name":"Ecole élémentaire Langevin","commune":"Dunkerque","secteur":"Privé","dep":"059","lat":2.358071,"lon":51.028083},{"uai":"0594865T","type":"college","name":"Collège Anatole France","commune":"Ronchin","secteur":"Privé","dep":"059","lat":3.080531,"lon":50.611817},{"uai":"0594868W","type":"lycee","name":"Section d'enseignement général et professionnel adapté du Collège Raymond Devos","commune":"Hem","secteur":"Privé","dep":"059","lat":3.18627,"lon":50.661881},{"uai":"0594874C","type":"lycee","name":"Section d'enseignement général et professionnel adapté du Collège Victor Hugo","commune":"Auby","secteur":"Privé","dep":"059","lat":3.053583,"lon":50.412708},{"uai":"0594877F","type":"lycee","name":"Section d'enseignement général et professionnel adapté du Collège Villars","commune":"Denain","secteur":"Privé","dep":"059","lat":3.395021,"lon":50.322955},{"uai":"0594879H","type":"college","name":"Collège Joliot-Curie","commune":"Fourmies","secteur":"Privé","dep":"059","lat":4.060949,"lon":50.018223},{"uai":"0594885P","type":"ecole","name":"Ecole maternelle Vincent Van Gogh","commune":"Coudekerque-Branche","secteur":"Privé","dep":"059","lat":2.40274,"lon":51.020651},{"uai":"0594907N","type":"ecole","name":"Ecole maternelle Le Chaufour","commune":"Auberchicourt","secteur":"Privé","dep":"059","lat":3.230341,"lon":50.327972},{"uai":"0594915X","type":"ecole","name":"Ecole primaire René Coty","commune":"Cambrai","secteur":"Privé","dep":"059","lat":3.22715,"lon":50.162465},{"uai":"0594926J","type":"ecole","name":"Groupe scolaire Les Maroux","commune":"Glageon","secteur":"Privé","dep":"059","lat":4.07206,"lon":50.058236},{"uai":"0594939Y","type":"ecole","name":"Ecole élémentaire Curie - Michelet","commune":"Loos","secteur":"Privé","dep":"059","lat":3.01637,"lon":50.608877},{"uai":"0594963Z","type":"ecole","name":"Ecole élémentaire Jean Moulin-Hélène Boucher","commune":"Ronchin","secteur":"Privé","dep":"059","lat":3.096688,"lon":50.601851},{"uai":"0594969F","type":"ecole","name":"Groupe scolaire Paulette Deblock","commune":"Sin-le-Noble","secteur":"Privé","dep":"059","lat":3.09748,"lon":50.347713},{"uai":"0594980T","type":"ecole","name":"Ecole primaire Verhaeren","commune":"Villeneuve-d'Ascq","secteur":"Privé","dep":"059","lat":3.129164,"lon":50.622015},{"uai":"0594983W","type":"ecole","name":"Ecole primaire Henri Matisse","commune":"Vred","secteur":"Privé","dep":"059","lat":3.2314,"lon":50.393727},{"uai":"0594984X","type":"ecole","name":"Ecole maternelle Jacques Prévert","commune":"Wallers","secteur":"Privé","dep":"059","lat":3.39739,"lon":50.362151},{"uai":"0595043L","type":"ecole","name":"Ecole élémentaire Carnot","commune":"Vieux-Condé","secteur":"Privé","dep":"059","lat":3.56022,"lon":50.465398},{"uai":"0595061F","type":"ecole","name":"Ecole élémentaire Chopin","commune":"Villeneuve-d'Ascq","secteur":"Privé","dep":"059","lat":3.13449,"lon":50.635448},{"uai":"0595087J","type":"ecole","name":"Groupe scolaire Simone Veil","commune":"Houplin-Ancoisne","secteur":"Privé","dep":"059","lat":2.992919,"lon":50.573571},{"uai":"0595098W","type":"ecole","name":"Ecole maternelle Albert Samain","commune":"Ronchin","secteur":"Privé","dep":"059","lat":3.095319,"lon":50.597794},{"uai":"0595124Z","type":"lycee","name":"Institut agricole privé de Hazebrouck","commune":"Hazebrouck","secteur":"Privé","dep":"059","lat":2.52846,"lon":50.721247},{"uai":"0595167W","type":"college","name":"Collège Baudelaire","commune":"Roubaix","secteur":"Privé","dep":"059","lat":3.16864,"lon":50.679873},{"uai":"0595170Z","type":"college","name":"Collège des Flandres","commune":"Hazebrouck","secteur":"Privé","dep":"059","lat":2.529061,"lon":50.731177},{"uai":"0595174D","type":"college","name":"Collège Robert Badinter","commune":"Cambrai","secteur":"Privé","dep":"059","lat":3.24209,"lon":50.173427},{"uai":"0595182M","type":"lycee","name":"Section d'enseignement général et professionnel adapté du Collège Anatole France","commune":"Sin-le-Noble","secteur":"Privé","dep":"059","lat":3.114949,"lon":50.361329},{"uai":"0595184P","type":"lycee","name":"Section d'enseignement général et professionnel adapté du Collège Eugène Thomas","commune":"Le Quesnoy","secteur":"Privé","dep":"059","lat":3.645719,"lon":50.247795},{"uai":"0595190W","type":"college","name":"Collège Gayant","commune":"Douai","secteur":"Privé","dep":"059","lat":3.124549,"lon":50.401913},{"uai":"0595193Z","type":"ecole","name":"Ecole élémentaire Annick Mouvet","commune":"Jeumont","secteur":"Privé","dep":"059","lat":4.09585,"lon":50.304564},{"uai":"0595215Y","type":"ecole","name":"Ecole primaire Picasso - Brel","commune":"Roncq","secteur":"Privé","dep":"059","lat":3.130051,"lon":50.742774},{"uai":"0595217A","type":"ecole","name":"Ecole primaire Henri Carrette","commune":"Roubaix","secteur":"Privé","dep":"059","lat":3.1751,"lon":50.700537},{"uai":"0595222F","type":"ecole","name":"Ecole maternelle Albert Camus","commune":"Villeneuve-d'Ascq","secteur":"Privé","dep":"059","lat":3.15097,"lon":50.641955},{"uai":"0595234U","type":"ecole","name":"Ecole primaire Antoine de Saint Exupéry","commune":"Curgies","secteur":"Privé","dep":"059","lat":3.601641,"lon":50.330024},{"uai":"0595238Y","type":"ecole","name":"Ecole primaire Jean Moulin-Louis Pergaud","commune":"Lille","secteur":"Privé","dep":"059","lat":3.07156,"lon":50.609538},{"uai":"0595240A","type":"ecole","name":"Ecole élémentaire Jacques Prévert","commune":"Monchecourt","secteur":"Privé","dep":"059","lat":3.20908,"lon":50.30387},{"uai":"0595247H","type":"ecole","name":"Ecole primaire Felix Boschat","commune":"Ghyvelde","secteur":"Privé","dep":"059","lat":2.54833,"lon":51.022303},{"uai":"0595278S","type":"lycee","name":"Section d'enseignement général et professionnel adapté du Collège Jacques Prévert","commune":"Caudry","secteur":"Privé","dep":"059","lat":3.42053,"lon":50.125155},{"uai":"0595302T","type":"college","name":"Collège privé Saint-Exupéry","commune":"Roubaix","secteur":"Privé","dep":"059","lat":3.167461,"lon":50.684565},{"uai":"0595315G","type":"ecole","name":"Ecole maternelle Jacques Prévert","commune":"Villeneuve-d'Ascq","secteur":"Privé","dep":"059","lat":3.132269,"lon":50.648511},{"uai":"0595317J","type":"ecole","name":"Ecole maternelle Ferdinand Buisson","commune":"Wattrelos","secteur":"Privé","dep":"059","lat":3.20464,"lon":50.706706},{"uai":"0595325T","type":"ecole","name":"Ecole primaire Garcia Lorca","commune":"Grande-Synthe","secteur":"Privé","dep":"059","lat":2.28987,"lon":51.005471},{"uai":"0595329X","type":"lycee","name":"Section d'enseignement général et professionnel adapté du Collège Emile Littré","commune":"Douchy-les-Mines","secteur":"Privé","dep":"059","lat":3.39826,"lon":50.300336},{"uai":"0595331Z","type":"lycee","name":"Section d'enseignement général et professionnel adapté du Collège du Pévèle","commune":"Orchies","secteur":"Privé","dep":"059","lat":3.239679,"lon":50.470357},{"uai":"0595337F","type":"college","name":"Collège Jean Rostand","commune":"Le Cateau-Cambrésis","secteur":"Privé","dep":"059","lat":3.532411,"lon":50.099126},{"uai":"0595360F","type":"college","name":"Collège privé Sainte Marie","commune":"Beaucamps-Ligny","secteur":"Privé","dep":"059","lat":2.918751,"lon":50.601886},{"uai":"0595362H","type":"lycee","name":"Section d'enseignement général et professionnel adapté du Collège privé Sainte Marie","commune":"Roubaix","secteur":"Privé","dep":"059","lat":3.176439,"lon":50.696279},{"uai":"0595366M","type":"ecole","name":"Ecole maternelle Victor Loridan","commune":"Hallennes-lez-Haubourdin","secteur":"Privé","dep":"059","lat":2.96503,"lon":50.613046},{"uai":"0595369R","type":"ecole","name":"Ecole maternelle Jacques Prévert","commune":"Tourcoing","secteur":"Privé","dep":"059","lat":3.15839,"lon":50.710339},{"uai":"0595382E","type":"college","name":"Collège privé Saint Jude","commune":"Armentières","secteur":"Privé","dep":"059","lat":2.87459,"lon":50.688058},{"uai":"0595388L","type":"college","name":"Collège privé René Bonpain","commune":"Grande-Synthe","secteur":"Privé","dep":"059","lat":2.308271,"lon":51.017872},{"uai":"0595394T","type":"college","name":"Collège privé Notre-Dame de La Paix","commune":"Lille","secteur":"Privé","dep":"059","lat":3.06747,"lon":50.641302},{"uai":"0595402B","type":"college","name":"Collège privé Notre-Dame","commune":"Saint-Saulve","secteur":"Privé","dep":"059","lat":3.55312,"lon":50.375959},{"uai":"0595429F","type":"ecole","name":"Ecole primaire privée La Providence","commune":"Dunkerque","secteur":"Privé","dep":"059","lat":2.32117,"lon":51.019058},{"uai":"0595433K","type":"ecole","name":"Ecole maternelle Célestin Freinet","commune":"Grande-Synthe","secteur":"Privé","dep":"059","lat":2.29684,"lon":51.006308},{"uai":"0595441U","type":"ecole","name":"Ecole primaire Gérard Philipe","commune":"Loon-Plage","secteur":"Privé","dep":"059","lat":2.22227,"lon":50.987662},{"uai":"0595442V","type":"ecole","name":"Ecole primaire Elsa Triolet","commune":"Roubaix","secteur":"Privé","dep":"059","lat":3.17159,"lon":50.696654},{"uai":"0595507R","type":"ecole","name":"Ecole primaire René Clair","commune":"Villeneuve-d'Ascq","secteur":"Privé","dep":"059","lat":3.15713,"lon":50.639208},{"uai":"0595540B","type":"lycee","name":"Lycée d'enseignement général et technologique agricole du Nord - site du Quesnoy","commune":"Le Quesnoy","secteur":"Privé","dep":"059","lat":3.64975,"lon":50.244987},{"uai":"0595541C","type":"lycee","name":"Maison Familiale Rurale du Cateau","commune":"Le Cateau-Cambrésis","secteur":"Privé","dep":"059","lat":3.53782,"lon":50.090553},{"uai":"0595606Y","type":"ecole","name":"Ecole primaire Charles de Coster - Thyl l'Espiègle","commune":"Bailleul","secteur":"Privé","dep":"059","lat":2.72439,"lon":50.730478},{"uai":"0595630Z","type":"college","name":"Collège privé Saint Paul","commune":"Hem","secteur":"Privé","dep":"059","lat":3.184409,"lon":50.669265},{"uai":"0595655B","type":"ecole","name":"Ecole primaire Paul Bert","commune":"Tourcoing","secteur":"Privé","dep":"059","lat":3.15328,"lon":50.728724},{"uai":"0595701B","type":"ecole","name":"Ecole primaire François Noël","commune":"Arleux","secteur":"Privé","dep":"059","lat":3.11662,"lon":50.292407},{"uai":"0595705F","type":"ecole","name":"Ecole élémentaire Saint-Exupéry","commune":"Petite-Forêt","secteur":"Privé","dep":"059","lat":3.471301,"lon":50.37354},{"uai":"0595758N","type":"college","name":"Collège Etienne Dolet","commune":"Provin","secteur":"Privé","dep":"059","lat":2.899601,"lon":50.521371},{"uai":"0595811W","type":"ecole","name":"Ecole maternelle du Chemin Vert","commune":"Rousies","secteur":"Privé","dep":"059","lat":3.97714,"lon":50.266624},{"uai":"0595836Y","type":"ecole","name":"Groupe scolaire élémentaire Louise Michel - Pierre-Gilles de Gennes","commune":"Auberchicourt","secteur":"Privé","dep":"059","lat":3.2344,"lon":50.331752},{"uai":"0595857W","type":"ecole","name":"Ecole maternelle Alain Savary","commune":"Dunkerque","secteur":"Privé","dep":"059","lat":2.40389,"lon":51.039779},{"uai":"0595885B","type":"lycee","name":"Lycée général et technologique Arthur Rimbaud","commune":"Sin-le-Noble","secteur":"Privé","dep":"059","lat":3.108099,"lon":50.347635},{"uai":"0595918M","type":"lycee","name":"Lycée professionnel privé EPID - Lycée des Métiers des Industries et des innovations technologiques","commune":"Dunkerque","secteur":"Privé","dep":"059","lat":2.372141,"lon":51.026221},{"uai":"0595927X","type":"ecole","name":"Ecole élémentaire Maurice Carême","commune":"Beauvois-en-Cambrésis","secteur":"Privé","dep":"059","lat":3.38085,"lon":50.139435},{"uai":"0595931B","type":"ecole","name":"Ecole élémentaire Centre","commune":"Ferrière-la-Grande","secteur":"Privé","dep":"059","lat":3.993361,"lon":50.252024},{"uai":"0595943P","type":"ecole","name":"Ecole primaire Voltaire","commune":"Wattrelos","secteur":"Privé","dep":"059","lat":3.19273,"lon":50.713663},{"uai":"0596001C","type":"ecole","name":"Groupe scolaire Marcel Pagnol","commune":"Auby","secteur":"Privé","dep":"059","lat":3.09,"lon":50.408159},{"uai":"0596005G","type":"ecole","name":"Ecole primaire Bezegher","commune":"Merville","secteur":"Privé","dep":"059","lat":2.618221,"lon":50.638981},{"uai":"0596116C","type":"ecole","name":"Ecole primaire privée Saint Vincent de Paul","commune":"Lille","secteur":"Privé","dep":"059","lat":3.06812,"lon":50.621351},{"uai":"0596117D","type":"ecole","name":"Ecole primaire privée Saint François d'Assise Sainte Famille","commune":"Roubaix","secteur":"Privé","dep":"059","lat":3.18378,"lon":50.698254},{"uai":"0596209D","type":"ecole","name":"Ecole élémentaire Sévigné-Voltaire","commune":"Lille","secteur":"Privé","dep":"059","lat":3.00348,"lon":50.633824},{"uai":"0596215K","type":"ecole","name":"Ecole primaire privée Saint Louis Sacré-Coeur","commune":"Nieppe","secteur":"Privé","dep":"059","lat":2.83969,"lon":50.703772},{"uai":"0596298A","type":"ecole","name":"Groupe Scolaire Maurice Schumann","commune":"Hoymille","secteur":"Privé","dep":"059","lat":2.4503,"lon":50.971739},{"uai":"0596300C","type":"ecole","name":"Ecole primaire Henri Matisse","commune":"Tressin","secteur":"Privé","dep":"059","lat":3.19486,"lon":50.617747},{"uai":"0596301D","type":"ecole","name":"Ecole primaire Antoine de Saint-Exupéry","commune":"Valenciennes","secteur":"Privé","dep":"059","lat":3.52099,"lon":50.346166},{"uai":"0596333N","type":"ecole","name":"Ecole primaire Albert Camus","commune":"Tourcoing","secteur":"Privé","dep":"059","lat":3.18379,"lon":50.743074},{"uai":"0596363W","type":"ecole","name":"Ecole élémentaire Georges Manier","commune":"Grand-Fort-Philippe","secteur":"Privé","dep":"059","lat":2.105629,"lon":50.999917},{"uai":"0596393D","type":"ecole","name":"Ecole primaire Rameau","commune":"Lambersart","secteur":"Privé","dep":"059","lat":3.036731,"lon":50.657954},{"uai":"0596418F","type":"ecole","name":"Ecole primaire privée Saint Gérard-Sainte Constance","commune":"Godewaersvelde","secteur":"Privé","dep":"059","lat":2.64465,"lon":50.795091},{"uai":"0596419G","type":"ecole","name":"Ecole primaire privée La Salle","commune":"Lille","secteur":"Privé","dep":"059","lat":3.04053,"lon":50.624785},{"uai":"0596461C","type":"ecole","name":"Ecole primaire privée Saint Sauveur et Saint Eubert","commune":"Lille","secteur":"Privé","dep":"059","lat":3.073071,"lon":50.632031},{"uai":"0596469L","type":"ecole","name":"Ecole élémentaire Jean-Marie Brison","commune":"Quiévrechain","secteur":"Privé","dep":"059","lat":3.66393,"lon":50.394535},{"uai":"0596500V","type":"ecole","name":"Ecole primaire Anne Franck - Jean Moulin","commune":"Halluin","secteur":"Privé","dep":"059","lat":3.11261,"lon":50.778637},{"uai":"0596505A","type":"ecole","name":"Ecole élémentaire Chenier Severine","commune":"Lille","secteur":"Privé","dep":"059","lat":3.03615,"lon":50.618397},{"uai":"0596510F","type":"ecole","name":"Ecole élémentaire d'application Jean Jaurès","commune":"Douai","secteur":"Privé","dep":"059","lat":3.08467,"lon":50.363049},{"uai":"0596524W","type":"ecole","name":"Ecole élémentaire Joliot-Curie","commune":"Dechy","secteur":"Privé","dep":"059","lat":3.12542,"lon":50.352456},{"uai":"0596526Y","type":"ecole","name":"Ecole primaire Joliot-Curie","commune":"Famars","secteur":"Privé","dep":"059","lat":3.51733,"lon":50.318715},{"uai":"0596531D","type":"ecole","name":"Groupe scolaire Ambroise Paré","commune":"Neuville-en-Ferrain","secteur":"Privé","dep":"059","lat":3.159531,"lon":50.748442},{"uai":"0596616W","type":"ecole","name":"Ecole primaire privée Saint Christophe","commune":"Marcq-en-Baroeul","secteur":"Privé","dep":"059","lat":3.10476,"lon":50.660685},{"uai":"0596617X","type":"ecole","name":"Ecole primaire privée Saint Matthieu","commune":"Tourcoing","secteur":"Privé","dep":"059","lat":3.142451,"lon":50.731657},{"uai":"0596633P","type":"ecole","name":"Ecole primaire publique Les Beaux Monts","commune":"Saint-Saulve","secteur":"Privé","dep":"059","lat":3.551691,"lon":50.365756},{"uai":"0596644B","type":"ecole","name":"Groupe scolaire public Marie Curie - Charles Vion","commune":"Provin","secteur":"Privé","dep":"059","lat":2.91285,"lon":50.514323},{"uai":"0596647E","type":"ecole","name":"Ecole primaire publique Calmette","commune":"Villeneuve-d'Ascq","secteur":"Privé","dep":"059","lat":3.16282,"lon":50.643423},{"uai":"0596650H","type":"ecole","name":"Ecole primaire publique Marceline Desbordes Valmore","commune":"Faumont","secteur":"Privé","dep":"059","lat":3.134761,"lon":50.447123},{"uai":"0596655N","type":"ecole","name":"Ecole primaire publique Le Bosquet","commune":"Wallers","secteur":"Privé","dep":"059","lat":3.42558,"lon":50.386726},{"uai":"0596681S","type":"lycee","name":"Lycée général et technologique privé Averroès","commune":"Lille","secteur":"Privé","dep":"059","lat":3.0535,"lon":50.613973},{"uai":"0596726R","type":"ecole","name":"Ecole primaire privée Saint Jean-Baptiste","commune":"Roubaix","secteur":"Privé","dep":"059","lat":3.180459,"lon":50.679365},{"uai":"0596860L","type":"college","name":"Collège Lucie Aubrac","commune":"Tourcoing","secteur":"Privé","dep":"059","lat":3.13039,"lon":50.730967},{"uai":"0596861M","type":"lycee","name":"Section d'enseignement général et professionnel adapté du Collège Lucie Aubrac","commune":"Tourcoing","secteur":"Privé","dep":"059","lat":3.141051,"lon":50.73014},{"uai":"0596873A","type":"college","name":"Collège Simone Veil","commune":"Cappelle-en-Pévèle","secteur":"Privé","dep":"059","lat":3.16555,"lon":50.513357},{"uai":"0596939X","type":"college","name":"Ecole secondaire privée hors contrat Averroès","commune":"Lille","secteur":"Privé","dep":"059","lat":3.05463,"lon":50.613628},{"uai":"0597055Y","type":"college","name":"Collège privé Notre-Dame de la Renaissance","commune":"Somain","secteur":"Privé","dep":"059","lat":3.281921,"lon":50.338378},{"uai":"0597100X","type":"ecole","name":"Ecole européenne de Lille Métropole Jacques Delors - niveau école primaire","commune":"Marcq-en-Baroeul","secteur":"Privé","dep":"059","lat":3.086763,"lon":50.662191},{"uai":"0597133H","type":"ecole","name":"Ecole privée hors contrat de la Liberté - école élémentaire","commune":"Berlaimont","secteur":"Privé","dep":"059","lat":3.785726,"lon":50.201941},{"uai":"0597137M","type":"lycee","name":"Micro-Lycée du lycée Pierre Forest de MAUBEUGE","commune":"Maubeuge","secteur":"Privé","dep":"059","lat":3.980171,"lon":50.28194},{"uai":"0597180J","type":"ecole","name":"Ecole primaire privée hors contrat Main dans la Main","commune":"Roubaix","secteur":"Privé","dep":"059","lat":3.18454,"lon":50.697876},{"uai":"0597195A","type":"ecole","name":"Ecole primaire privée hors contrat l'Oeil du Loup - Ecole privée alternative","commune":"Prisches","secteur":"Privé","dep":"059","lat":3.768149,"lon":50.080652},{"uai":"0597375W","type":"college","name":"Ecole secondaire privée hors contrat \"La petite école au bord du Monde\" - niveau Collège","commune":"Aubers","secteur":"Privé","dep":"059","lat":2.826043,"lon":50.595362},{"uai":"0597426B","type":"college","name":"Micro-Collège Franklin de Lille","commune":"Lille","secteur":"Privé","dep":"059","lat":3.070807,"lon":50.628581},{"uai":"0600001A","type":"lycee","name":"Lycée général et technologique Félix Faure","commune":"Beauvais","secteur":"Privé","dep":"060","lat":2.09003,"lon":49.435699},{"uai":"0600002B","type":"lycee","name":"Lycée polyvalent Paul Langevin - Lycée des métiers de l'industrie et du génie civil","commune":"Beauvais","secteur":"Privé","dep":"060","lat":2.1086,"lon":49.415053},{"uai":"0600012M","type":"college","name":"Collège Saint-Exupéry","commune":"Chaumont-en-Vexin","secteur":"Privé","dep":"060","lat":1.87349,"lon":49.262674},{"uai":"0600021X","type":"lycee","name":"Lycée général et technologique Jules Uhry","commune":"Creil","secteur":"Privé","dep":"060","lat":2.473331,"lon":49.258621},{"uai":"0600040T","type":"lycee","name":"Lycée d'enseignement général et technologique Jean Calvin","commune":"Noyon","secteur":"Privé","dep":"060","lat":3.015,"lon":49.584183},{"uai":"0600050D","type":"college","name":"Collège Albéric MAGNARD","commune":"Senlis","secteur":"Privé","dep":"060","lat":2.59671,"lon":49.209666},{"uai":"0600061R","type":"college","name":"Section d'enseignement professionnel Paul Langevin  - Lycée des métiers de l'industrie et du génie civil","commune":"Beauvais","secteur":"Privé","dep":"060","lat":2.10737,"lon":49.414686},{"uai":"0600086T","type":"ecole","name":"Ecole primaire des Rainettes","commune":"Rainvillers","secteur":"Privé","dep":"060","lat":2.00763,"lon":49.408122},{"uai":"0600113X","type":"ecole","name":"Ecole primaire","commune":"Croissy-sur-Celle","secteur":"Privé","dep":"060","lat":2.170891,"lon":49.697457},{"uai":"0600119D","type":"ecole","name":"Ecole primaire","commune":"Luchy","secteur":"Privé","dep":"060","lat":2.121125,"lon":49.55288},{"uai":"0600138Z","type":"ecole","name":"Ecole primaire","commune":"Fleury","secteur":"Privé","dep":"060","lat":1.967901,"lon":49.242217},{"uai":"0600173M","type":"ecole","name":"Ecole primaire La Croisée des Chemins","commune":"Cuvergnon","secteur":"Privé","dep":"060","lat":2.990499,"lon":49.174827},{"uai":"0600180V","type":"ecole","name":"Ecole primaire","commune":"Marolles","secteur":"Privé","dep":"060","lat":3.10322,"lon":49.170414},{"uai":"0600215H","type":"ecole","name":"Ecole primaire","commune":"Bornel","secteur":"Privé","dep":"060","lat":2.190089,"lon":49.210975},{"uai":"0600218L","type":"ecole","name":"Ecole primaire","commune":"Hénonville","secteur":"Privé","dep":"060","lat":2.05092,"lon":49.207616},{"uai":"0600219M","type":"ecole","name":"Ecole primaire","commune":"Ivry-le-Temple","secteur":"Privé","dep":"060","lat":2.03093,"lon":49.229371},{"uai":"0600232B","type":"ecole","name":"Ecole primaire","commune":"Flavacourt","secteur":"Privé","dep":"060","lat":1.82017,"lon":49.33514},{"uai":"0600248U","type":"ecole","name":"Ecole maternelle","commune":"Courtieux","secteur":"Privé","dep":"060","lat":3.08998,"lon":49.385099},{"uai":"0600255B","type":"ecole","name":"Ecole élémentaire","commune":"Moulin-sous-Touvent","secteur":"Privé","dep":"060","lat":3.07161,"lon":49.456099},{"uai":"0600274X","type":"ecole","name":"Ecole primaire","commune":"Ansauvillers","secteur":"Privé","dep":"060","lat":2.384699,"lon":49.565038},{"uai":"0600276Z","type":"ecole","name":"Ecole primaire","commune":"Bacouël","secteur":"Privé","dep":"060","lat":2.383171,"lon":49.622847},{"uai":"0600288M","type":"ecole","name":"Ecole primaire","commune":"Paillart","secteur":"Privé","dep":"060","lat":2.32463,"lon":49.668256},{"uai":"0600296W","type":"ecole","name":"Ecole élémentaire","commune":"Villers-Vicomte","secteur":"Privé","dep":"060","lat":2.23984,"lon":49.643575},{"uai":"0600313P","type":"ecole","name":"Ecole élémentaire","commune":"Gilocourt","secteur":"Privé","dep":"060","lat":2.87966,"lon":49.292023},{"uai":"0600319W","type":"ecole","name":"Ecole maternelle","commune":"Néry","secteur":"Privé","dep":"060","lat":2.79177,"lon":49.297159},{"uai":"0600321Y","type":"ecole","name":"Ecole maternelle","commune":"Orrouy","secteur":"Privé","dep":"060","lat":2.85605,"lon":49.290715},{"uai":"0600324B","type":"ecole","name":"Ecole élémentaire","commune":"Russy-Bémont","secteur":"Privé","dep":"060","lat":2.964849,"lon":49.243141},{"uai":"0600325C","type":"ecole","name":"Ecole primaire L.Collas","commune":"Saintines","secteur":"Privé","dep":"060","lat":2.76879,"lon":49.306615},{"uai":"0600336P","type":"ecole","name":"Ecole primaire du Tilleul","commune":"Saint-Martin-le-Noeud","secteur":"Privé","dep":"060","lat":2.05991,"lon":49.395415},{"uai":"0600337R","type":"ecole","name":"Ecole élémentaire","commune":"Pierrefitte-en-Beauvaisis","secteur":"Privé","dep":"060","lat":1.98219,"lon":49.474619},{"uai":"0600339T","type":"ecole","name":"Ecole primaire","commune":"Herchies","secteur":"Privé","dep":"060","lat":2.00839,"lon":49.487881},{"uai":"0600346A","type":"ecole","name":"Ecole élémentaire d'Allonne","commune":"Allonne","secteur":"Privé","dep":"060","lat":2.11147,"lon":49.404712},{"uai":"0600348C","type":"ecole","name":"Ecole primaire Jean Moulin","commune":"Beauvais","secteur":"Privé","dep":"060","lat":2.10519,"lon":49.435204},{"uai":"0600358N","type":"ecole","name":"Ecole élémentaire Georges Dartois","commune":"Beauvais","secteur":"Privé","dep":"060","lat":2.08144,"lon":49.447188},{"uai":"0600360R","type":"ecole","name":"Ecole élémentaire Marissel A.  F. Bordez","commune":"Beauvais","secteur":"Privé","dep":"060","lat":2.10736,"lon":49.428879},{"uai":"0600364V","type":"ecole","name":"Ecole élémentaire d'application Bossuet Ferry","commune":"Beauvais","secteur":"Privé","dep":"060","lat":2.079275,"lon":49.433815},{"uai":"0600386U","type":"ecole","name":"Ecole primaire","commune":"Dargies","secteur":"Privé","dep":"060","lat":1.988759,"lon":49.701668},{"uai":"0600391Z","type":"ecole","name":"Ecole primaire","commune":"Sommereux","secteur":"Privé","dep":"060","lat":1.9916,"lon":49.679426},{"uai":"0600403M","type":"ecole","name":"Ecole primaire du Thérinet","commune":"Milly-sur-Thérain","secteur":"Privé","dep":"060","lat":1.997339,"lon":49.50345},{"uai":"0600410V","type":"ecole","name":"Ecole primaire","commune":"Fontaine-Lavaganne","secteur":"Privé","dep":"060","lat":1.950739,"lon":49.59697},{"uai":"0600418D","type":"ecole","name":"Ecole maternelle les Bruyères","commune":"Coye-la-Forêt","secteur":"Privé","dep":"060","lat":2.469067,"lon":49.138084},{"uai":"0600427N","type":"ecole","name":"Ecole maternelle Bellonte","commune":"Méru","secteur":"Privé","dep":"060","lat":2.131189,"lon":49.231708},{"uai":"0600440C","type":"ecole","name":"Ecole maternelle de Beauval","commune":"Senlis","secteur":"Privé","dep":"060","lat":2.59537,"lon":49.209455},{"uai":"0600441D","type":"ecole","name":"Ecole maternelle Anne de Kiev","commune":"Senlis","secteur":"Privé","dep":"060","lat":2.57564,"lon":49.206686},{"uai":"0600445H","type":"ecole","name":"Ecole maternelle Louis Aragon","commune":"Hermes","secteur":"Privé","dep":"060","lat":2.25022,"lon":49.355187},{"uai":"0600450N","type":"ecole","name":"Ecole maternelle Jacques Prévert","commune":"Pont-Sainte-Maxence","secteur":"Privé","dep":"060","lat":2.607609,"lon":49.293835},{"uai":"0600451P","type":"ecole","name":"Ecole maternelle Marie Curie","commune":"Pont-Sainte-Maxence","secteur":"Privé","dep":"060","lat":2.60203,"lon":49.307339},{"uai":"0600461A","type":"ecole","name":"Ecole maternelle la Grenouillère","commune":"Beauvais","secteur":"Privé","dep":"060","lat":2.073907,"lon":49.442163},{"uai":"0600471L","type":"ecole","name":"Ecole maternelle Pierre Viénot","commune":"Clermont","secteur":"Privé","dep":"060","lat":2.412209,"lon":49.375127},{"uai":"0600475R","type":"ecole","name":"Ecole primaire Docteur André Hammel","commune":"Compiègne","secteur":"Privé","dep":"060","lat":2.82195,"lon":49.405445},{"uai":"0600476S","type":"ecole","name":"Ecole maternelle Royallieu","commune":"Compiègne","secteur":"Privé","dep":"060","lat":2.80315,"lon":49.395434},{"uai":"0600477T","type":"ecole","name":"Ecole maternelle Saint-Germain","commune":"Compiègne","secteur":"Privé","dep":"060","lat":2.817209,"lon":49.410137},{"uai":"0600479V","type":"ecole","name":"Ecole maternelle Ph. Lebesgue","commune":"Compiègne","secteur":"Privé","dep":"060","lat":2.80162,"lon":49.407621},{"uai":"0600502V","type":"ecole","name":"Ecole maternelle Joliot-Curie","commune":"Montataire","secteur":"Privé","dep":"060","lat":2.4479,"lon":49.256334},{"uai":"0600508B","type":"ecole","name":"Ecole élémentaire","commune":"Sempigny","secteur":"Privé","dep":"060","lat":2.99448,"lon":49.556491},{"uai":"0600510D","type":"ecole","name":"Ecole maternelle","commune":"Varesnes","secteur":"Privé","dep":"060","lat":3.059991,"lon":49.563497},{"uai":"0600517L","type":"ecole","name":"Ecole élémentaire","commune":"Bonlier","secteur":"Privé","dep":"060","lat":2.14927,"lon":49.470304},{"uai":"0600524U","type":"ecole","name":"Ecole élémentaire Camille Pissarro","commune":"Juvignies","secteur":"Privé","dep":"060","lat":2.08485,"lon":49.51932},{"uai":"0600540L","type":"ecole","name":"Ecole primaire Pierre Louvet","commune":"Verderel-lès-Sauqueuse","secteur":"Privé","dep":"060","lat":2.097,"lon":49.502115},{"uai":"0600546T","type":"ecole","name":"Ecole élémentaire Mérard","commune":"Bury","secteur":"Privé","dep":"060","lat":2.343216,"lon":49.328174},{"uai":"0600547U","type":"ecole","name":"Ecole maternelle Claude de Durant","commune":"Bury","secteur":"Privé","dep":"060","lat":2.36504,"lon":49.291236},{"uai":"0600550X","type":"ecole","name":"Ecole primaire","commune":"Heilles","secteur":"Privé","dep":"060","lat":2.26914,"lon":49.335185},{"uai":"0600554B","type":"ecole","name":"Ecole primaire","commune":"Thury-sous-Clermont","secteur":"Privé","dep":"060","lat":2.32504,"lon":49.356879},{"uai":"0600557E","type":"ecole","name":"Ecole élémentaire Albert Camus","commune":"Liancourt","secteur":"Privé","dep":"060","lat":2.462571,"lon":49.330995},{"uai":"0600589P","type":"ecole","name":"Ecole élémentaire","commune":"Sacy-le-Petit","secteur":"Privé","dep":"060","lat":2.6283,"lon":49.358959},{"uai":"0600590R","type":"ecole","name":"Ecole primaire Robert Personne","commune":"Saint-Martin-Longueau","secteur":"Privé","dep":"060","lat":2.60325,"lon":49.342968},{"uai":"0600592T","type":"ecole","name":"Ecole élémentaire Juliette Gréco","commune":"Verderonne","secteur":"Privé","dep":"060","lat":2.49863,"lon":49.330599},{"uai":"0600612P","type":"ecole","name":"Ecole élémentaire","commune":"Tricot","secteur":"Privé","dep":"060","lat":2.58425,"lon":49.559541},{"uai":"0600618W","type":"ecole","name":"Ecole primaire","commune":"Amy","secteur":"Privé","dep":"060","lat":2.82515,"lon":49.655012},{"uai":"0600629H","type":"ecole","name":"Ecole primaire de Marquecy","commune":"Evricourt","secteur":"Privé","dep":"060","lat":2.91262,"lon":49.569231},{"uai":"0600633M","type":"ecole","name":"Ecole primaire","commune":"Lagny","secteur":"Privé","dep":"060","lat":2.913791,"lon":49.613417},{"uai":"0600638T","type":"ecole","name":"Ecole élémentaire","commune":"Roye-sur-Matz","secteur":"Privé","dep":"060","lat":2.773519,"lon":49.593198},{"uai":"0600650F","type":"ecole","name":"Groupe scolaire de la Petite Pelouse","commune":"Chantilly","secteur":"Privé","dep":"060","lat":2.47227,"lon":49.19366},{"uai":"0600654K","type":"ecole","name":"Ecole élémentaire Coq Chantant","commune":"Chantilly","secteur":"Privé","dep":"060","lat":2.464013,"lon":49.199789},{"uai":"0600657N","type":"ecole","name":"Ecole élémentaire du Centre","commune":"Gouvieux","secteur":"Privé","dep":"060","lat":2.417315,"lon":49.188155},{"uai":"0600658P","type":"ecole","name":"Ecole élémentaire Marcel Pagnol","commune":"Gouvieux","secteur":"Privé","dep":"060","lat":2.40734,"lon":49.19115},{"uai":"0600680N","type":"ecole","name":"Ecole primaire","commune":"Avrechy","secteur":"Privé","dep":"060","lat":2.426839,"lon":49.447021},{"uai":"0600692B","type":"ecole","name":"Ecole primaire","commune":"Etouy","secteur":"Privé","dep":"060","lat":2.361969,"lon":49.421283},{"uai":"0600713Z","type":"ecole","name":"Ecole Primaire Jeanne d'Arc-Pierre Sauvage","commune":"Compiègne","secteur":"Privé","dep":"060","lat":2.82837,"lon":49.418152},{"uai":"0600719F","type":"ecole","name":"Ecole élémentaire les Liniéres","commune":"Choisy-au-Bac","secteur":"Privé","dep":"060","lat":2.88341,"lon":49.445029},{"uai":"0600726N","type":"ecole","name":"Ecole élémentaire Desire Letolle","commune":"Lacroix-Saint-Ouen","secteur":"Privé","dep":"060","lat":2.78298,"lon":49.355376},{"uai":"0600749N","type":"ecole","name":"Ecole élémentaire Gérard de Nerval","commune":"Creil","secteur":"Privé","dep":"060","lat":2.469,"lon":49.249482},{"uai":"0600753T","type":"ecole","name":"Ecole élémentaire Somasco","commune":"Creil","secteur":"Privé","dep":"060","lat":2.48484,"lon":49.265672},{"uai":"0600783A","type":"ecole","name":"Ecole élémentaire","commune":"Bussy","secteur":"Privé","dep":"060","lat":2.98162,"lon":49.624873},{"uai":"0600789G","type":"ecole","name":"Ecole primaire","commune":"Fréniches","secteur":"Privé","dep":"060","lat":3.003531,"lon":49.670321},{"uai":"0600791J","type":"ecole","name":"Ecole élémentaire","commune":"Golancourt","secteur":"Privé","dep":"060","lat":3.06524,"lon":49.707115},{"uai":"0600792K","type":"ecole","name":"Ecole élémentaire","commune":"Libermont","secteur":"Privé","dep":"060","lat":2.973443,"lon":49.692852},{"uai":"0600794M","type":"ecole","name":"Ecole maternelle","commune":"Muirancourt","secteur":"Privé","dep":"060","lat":3.01038,"lon":49.644503},{"uai":"0600801V","type":"ecole","name":"Ecole élémentaire les Courtils","commune":"Estrées-Saint-Denis","secteur":"Privé","dep":"060","lat":2.640679,"lon":49.426814},{"uai":"0600816L","type":"ecole","name":"Ecole primaire","commune":"Lachelle","secteur":"Privé","dep":"060","lat":2.73496,"lon":49.443364},{"uai":"0600830B","type":"ecole","name":"Ecole élémentaire","commune":"Blargies","secteur":"Privé","dep":"060","lat":1.764911,"lon":49.671961},{"uai":"0600840M","type":"ecole","name":"Ecole élémentaire","commune":"Moliens","secteur":"Privé","dep":"060","lat":1.81275,"lon":49.668693},{"uai":"0600854C","type":"ecole","name":"Ecole élémentaire","commune":"Hardivillers","secteur":"Privé","dep":"060","lat":2.22258,"lon":49.616663},{"uai":"0600858G","type":"ecole","name":"Ecole primaire Philippe Honoré","commune":"Montreuil-sur-Brêche","secteur":"Privé","dep":"060","lat":2.272,"lon":49.508337},{"uai":"0600861K","type":"ecole","name":"Ecole élémentaire","commune":"Oursel-Maison","secteur":"Privé","dep":"060","lat":2.16308,"lon":49.592793},{"uai":"0600869U","type":"ecole","name":"Ecole maternelle Gaston Ramon","commune":"Crépy-en-Valois","secteur":"Privé","dep":"060","lat":2.8767,"lon":49.234116},{"uai":"0600870V","type":"ecole","name":"Ecole maternelle Jacques Prévert","commune":"Crépy-en-Valois","secteur":"Privé","dep":"060","lat":2.890571,"lon":49.235599},{"uai":"0600883J","type":"ecole","name":"Ecole primaire Christophe Colomb","commune":"Lachapelle-Saint-Pierre","secteur":"Privé","dep":"060","lat":2.234351,"lon":49.268872},{"uai":"0600884K","type":"ecole","name":"Ecole élémentaire","commune":"La Drenne","secteur":"Privé","dep":"060","lat":2.102081,"lon":49.310854},{"uai":"0600886M","type":"ecole","name":"Ecole primaire de la Vallée aux Cerfs","commune":"Mortefontaine-en-Thelle","secteur":"Privé","dep":"060","lat":2.18619,"lon":49.263808},{"uai":"0600889R","type":"ecole","name":"Ecole élémentaire Roger Pauchet","commune":"Sainte-Geneviève","secteur":"Privé","dep":"060","lat":2.199809,"lon":49.288683},{"uai":"0600890S","type":"ecole","name":"Ecole élémentaire Camille Claudel","commune":"Sainte-Geneviève","secteur":"Privé","dep":"060","lat":2.1926,"lon":49.291621},{"uai":"0600897Z","type":"ecole","name":"Ecole primaire","commune":"Warluis","secteur":"Privé","dep":"060","lat":2.14177,"lon":49.390587},{"uai":"0600907K","type":"ecole","name":"Ecole primaire","commune":"Grémévillers","secteur":"Privé","dep":"060","lat":1.89564,"lon":49.564511},{"uai":"0600916V","type":"ecole","name":"Ecole maternelle","commune":"Saint-Quentin-des-Prés","secteur":"Privé","dep":"060","lat":1.75438,"lon":49.520684},{"uai":"0600931L","type":"ecole","name":"Ecole élémentaire","commune":"Braisnes-sur-Aronde","secteur":"Privé","dep":"060","lat":2.7754,"lon":49.477489},{"uai":"0600942Y","type":"ecole","name":"Ecole élémentaire","commune":"Marquéglise","secteur":"Privé","dep":"060","lat":2.763869,"lon":49.516978},{"uai":"0600951H","type":"ecole","name":"Ecole primaire Ferdinand Buisson - Max Drains","commune":"Pont-Sainte-Maxence","secteur":"Privé","dep":"060","lat":2.601605,"lon":49.299833},{"uai":"0600962V","type":"ecole","name":"Ecole primaire","commune":"Roberval","secteur":"Privé","dep":"060","lat":2.68287,"lon":49.30428},{"uai":"0600963W","type":"ecole","name":"Ecole primaire","commune":"Rully","secteur":"Privé","dep":"060","lat":2.727031,"lon":49.235935},{"uai":"0600973G","type":"ecole","name":"Ecole élémentaire","commune":"Abbecourt","secteur":"Privé","dep":"060","lat":2.156729,"lon":49.359267},{"uai":"0600988Y","type":"ecole","name":"Ecole maternelle","commune":"Ermenonville","secteur":"Privé","dep":"060","lat":2.69358,"lon":49.125632},{"uai":"0600989Z","type":"ecole","name":"Ecole élémentaire","commune":"Eve","secteur":"Privé","dep":"060","lat":2.70309,"lon":49.090354},{"uai":"0600996G","type":"ecole","name":"Ecole primaire","commune":"Péroy-les-Gombries","secteur":"Privé","dep":"060","lat":2.843522,"lon":49.160897},{"uai":"0601003P","type":"ecole","name":"Ecole élémentaire","commune":"Versigny","secteur":"Privé","dep":"060","lat":2.76095,"lon":49.159729},{"uai":"0601004R","type":"ecole","name":"Ecole élémentaire les Goélands","commune":"Noyon","secteur":"Privé","dep":"060","lat":3.01359,"lon":49.592175},{"uai":"0601012Z","type":"ecole","name":"Ecole élémentaire","commune":"Appilly","secteur":"Privé","dep":"060","lat":3.11539,"lon":49.582416},{"uai":"0601015C","type":"ecole","name":"Ecole primaire","commune":"Béhéricourt","secteur":"Privé","dep":"060","lat":3.06864,"lon":49.602294},{"uai":"0601020H","type":"ecole","name":"Ecole maternelle","commune":"Genvry","secteur":"Privé","dep":"060","lat":2.99059,"lon":49.612042},{"uai":"0601024M","type":"ecole","name":"Ecole élémentaire","commune":"Morlincourt","secteur":"Privé","dep":"060","lat":3.03324,"lon":49.570112},{"uai":"0601026P","type":"ecole","name":"Ecole maternelle","commune":"Pont-l'Evêque","secteur":"Privé","dep":"060","lat":2.987519,"lon":49.564495},{"uai":"0601040E","type":"ecole","name":"Ecole primaire des Trois Cahiers","commune":"Dieudonné","secteur":"Privé","dep":"060","lat":2.24915,"lon":49.231469},{"uai":"0601041F","type":"ecole","name":"Ecole élémentaire Roger Salengro","commune":"Chambly","secteur":"Privé","dep":"060","lat":2.2453,"lon":49.165892},{"uai":"0601049P","type":"ecole","name":"Ecole primaire","commune":"Puiseux-le-Hauberger","secteur":"Privé","dep":"060","lat":2.23707,"lon":49.21567},{"uai":"0601081Z","type":"ecole","name":"Ecole primaire","commune":"Brunvillers-la-Motte","secteur":"Privé","dep":"060","lat":2.44945,"lon":49.549396},{"uai":"0601095P","type":"ecole","name":"Ecole primaire","commune":"Moyenneville","secteur":"Privé","dep":"060","lat":2.628681,"lon":49.49248},{"uai":"0601116M","type":"ecole","name":"Ecole primaire de la Nonette","commune":"Avilly-Saint-Léonard","secteur":"Privé","dep":"060","lat":2.51121,"lon":49.19349},{"uai":"0601128A","type":"ecole","name":"Ecole élémentaire Henri Delaunay","commune":"Orry-la-Ville","secteur":"Privé","dep":"060","lat":2.514629,"lon":49.131229},{"uai":"0601153C","type":"college","name":"Collège privé Sacré-Coeur","commune":"Breteuil","secteur":"Privé","dep":"060","lat":2.29165,"lon":49.633679},{"uai":"0601164P","type":"lycee","name":"Lycée professionnel privé Croiset","commune":"Chantilly","secteur":"Privé","dep":"060","lat":2.46138,"lon":49.175851},{"uai":"0601181H","type":"ecole","name":"Ecole maternelle les Sables de Ramecourt","commune":"Clermont","secteur":"Privé","dep":"060","lat":2.39866,"lon":49.384714},{"uai":"0601188R","type":"college","name":"Collège Jean Baptiste Pellerin","commune":"Beauvais","secteur":"Privé","dep":"060","lat":2.09362,"lon":49.429138},{"uai":"0601190T","type":"college","name":"Collège Charles Fauqueux","commune":"Beauvais","secteur":"Privé","dep":"060","lat":2.08082,"lon":49.416362},{"uai":"0601194X","type":"lycee","name":"Lycée agricole privé Charles Quentin de Pierrefonds","commune":"Pierrefonds","secteur":"Privé","dep":"060","lat":2.977421,"lon":49.344899},{"uai":"0601263X","type":"lycee","name":"Section d'enseignement général et professionnel adapté du Collège Charles Fauqueux","commune":"Beauvais","secteur":"Privé","dep":"060","lat":2.080439,"lon":49.416165},{"uai":"0601293E","type":"college","name":"Collège Romain Rolland","commune":"Mouy","secteur":"Privé","dep":"060","lat":2.309089,"lon":49.320612},{"uai":"0601297J","type":"college","name":"Collège Louis Pasteur","commune":"Noyon","secteur":"Privé","dep":"060","lat":3.01531,"lon":49.585492},{"uai":"0601311Z","type":"ecole","name":"Ecole maternelle Coq Chantant","commune":"Chantilly","secteur":"Privé","dep":"060","lat":2.464013,"lon":49.199789},{"uai":"0601356Y","type":"ecole","name":"Ecole maternelle Pauline Kergomard","commune":"Noyon","secteur":"Privé","dep":"060","lat":3.01424,"lon":49.592099},{"uai":"0601366J","type":"college","name":"Collège Ferdinand Bac","commune":"Compiègne","secteur":"Privé","dep":"060","lat":2.82937,"lon":49.419366},{"uai":"0601405B","type":"lycee","name":"Section d'enseignement général et professionnel adapté du Collège Pellerin","commune":"Beauvais","secteur":"Privé","dep":"060","lat":2.093669,"lon":49.428744},{"uai":"0601406C","type":"college","name":"Collège Compère Morel","commune":"Breteuil","secteur":"Privé","dep":"060","lat":2.298483,"lon":49.635025},{"uai":"0601435J","type":"ecole","name":"Ecole maternelle Jules Ferry","commune":"Verneuil-en-Halatte","secteur":"Privé","dep":"060","lat":2.516,"lon":49.273886},{"uai":"0601443T","type":"college","name":"Collège Anna de Noailles","commune":"Noailles","secteur":"Privé","dep":"060","lat":2.195827,"lon":49.328176},{"uai":"0601445V","type":"college","name":"Collège Louise Michel","commune":"Saint-Just-en-Chaussée","secteur":"Privé","dep":"060","lat":2.425189,"lon":49.50232},{"uai":"0601446W","type":"college","name":"Collège Clotaire Baujoin","commune":"Thourotte","secteur":"Privé","dep":"060","lat":2.87437,"lon":49.480192},{"uai":"0601449Z","type":"college","name":"Collège Jules Michelet","commune":"Creil","secteur":"Privé","dep":"060","lat":2.48265,"lon":49.262912},{"uai":"0601457H","type":"ecole","name":"Ecole primaire Anna de Noailles - Jean Monnet","commune":"Villers-sous-Saint-Leu","secteur":"Privé","dep":"060","lat":2.39637,"lon":49.213071},{"uai":"0601458J","type":"ecole","name":"Ecole élémentaire Charles Faroux Grp A","commune":"Compiègne","secteur":"Privé","dep":"060","lat":2.80744,"lon":49.408341},{"uai":"0601461M","type":"ecole","name":"Ecole maternelle Charles Faroux 1","commune":"Compiègne","secteur":"Privé","dep":"060","lat":2.80713,"lon":49.408258},{"uai":"0601469W","type":"college","name":"Collège Jean Moulin","commune":"Formerie","secteur":"Privé","dep":"060","lat":1.722241,"lon":49.64806},{"uai":"0601471Y","type":"college","name":"Collège Jean Fernel","commune":"Clermont","secteur":"Privé","dep":"060","lat":2.3974,"lon":49.384372},{"uai":"0601472Z","type":"lycee","name":"Section d'enseignement général et professionnel adapté du Collège Michelet","commune":"Creil","secteur":"Privé","dep":"060","lat":2.48247,"lon":49.262692},{"uai":"0601481J","type":"ecole","name":"Ecole élémentaire Albert Camus","commune":"Beauvais","secteur":"Privé","dep":"060","lat":2.101339,"lon":49.433831},{"uai":"0601490U","type":"ecole","name":"Ecole maternelle Marcel Pagnol","commune":"Beauvais","secteur":"Privé","dep":"060","lat":2.068578,"lon":49.416379},{"uai":"0601492W","type":"ecole","name":"Ecole maternelle Sévigné","commune":"Creil","secteur":"Privé","dep":"060","lat":2.46438,"lon":49.249268},{"uai":"0601526H","type":"lycee","name":"Section d'enseignement général et professionnel adapté du Collège Louis Pasteur","commune":"Noyon","secteur":"Privé","dep":"060","lat":3.016565,"lon":49.585114},{"uai":"0601529L","type":"ecole","name":"Ecole primaire Brichebay","commune":"Senlis","secteur":"Privé","dep":"060","lat":2.56811,"lon":49.194645},{"uai":"0601563Y","type":"ecole","name":"Ecole élémentaire  Rostand St Exupery","commune":"Villers-Saint-Paul","secteur":"Privé","dep":"060","lat":2.48231,"lon":49.288829},{"uai":"0601567C","type":"ecole","name":"Ecole primaire du Manoir des Aigles","commune":"Gouvieux","secteur":"Privé","dep":"060","lat":2.445451,"lon":49.186199},{"uai":"0601571G","type":"ecole","name":"Ecole élémentaire Robert Leroux","commune":"Mareuil-sur-Ourcq","secteur":"Privé","dep":"060","lat":3.07862,"lon":49.134877},{"uai":"0601610Z","type":"lycee","name":"Maison Familiale Rurale de Songeons","commune":"Songeons","secteur":"Privé","dep":"060","lat":1.85389,"lon":49.547939},{"uai":"0601620K","type":"ecole","name":"Ecole maternelle Joseph Pinchon","commune":"Noyon","secteur":"Privé","dep":"060","lat":3.01913,"lon":49.581971},{"uai":"0601626S","type":"ecole","name":"Ecole maternelle","commune":"Longueil-Sainte-Marie","secteur":"Privé","dep":"060","lat":2.71998,"lon":49.357843},{"uai":"0601627T","type":"ecole","name":"Ecole maternelle Roquesable","commune":"Fleurines","secteur":"Privé","dep":"060","lat":2.59139,"lon":49.268889},{"uai":"0601651U","type":"ecole","name":"Ecole primaire Auguste Delaherche","commune":"Lachapelle-aux-Pots","secteur":"Privé","dep":"060","lat":1.90215,"lon":49.449273},{"uai":"0601654X","type":"ecole","name":"Ecole maternelle Dimerons","commune":"La Chapelle-en-Serval","secteur":"Privé","dep":"060","lat":2.53043,"lon":49.123244},{"uai":"0601657A","type":"ecole","name":"Ecole élémentaire","commune":"Amblainville","secteur":"Privé","dep":"060","lat":2.122211,"lon":49.20245},{"uai":"0601662F","type":"ecole","name":"Ecole primaire Jean-Baptiste Clément","commune":"Saint-Leu-d'Esserent","secteur":"Privé","dep":"060","lat":2.40546,"lon":49.217877},{"uai":"0601669N","type":"ecole","name":"Ecole maternelle Rosemonde Gérard","commune":"Creil","secteur":"Privé","dep":"060","lat":2.486624,"lon":49.260501},{"uai":"0601693P","type":"ecole","name":"Ecole primaire Henri Dubreuil","commune":"Berthecourt","secteur":"Privé","dep":"060","lat":2.22881,"lon":49.351241},{"uai":"0601723X","type":"ecole","name":"Ecole maternelle du Val Mont","commune":"Tracy-le-Mont","secteur":"Privé","dep":"060","lat":3.0098,"lon":49.476767},{"uai":"0601724Y","type":"ecole","name":"Ecole élémentaire Jean Couvert","commune":"Tracy-le-Mont","secteur":"Privé","dep":"060","lat":3.010425,"lon":49.47258},{"uai":"0601753E","type":"ecole","name":"Ecole maternelle Henri Wallon","commune":"Montataire","secteur":"Privé","dep":"060","lat":2.42906,"lon":49.260556},{"uai":"0601766U","type":"college","name":"Collège du Servois","commune":"La Chapelle-en-Serval","secteur":"Privé","dep":"060","lat":2.528869,"lon":49.125063},{"uai":"0601775D","type":"ecole","name":"Ecole maternelle Jacques Prévert","commune":"Attichy","secteur":"Privé","dep":"060","lat":3.046481,"lon":49.410327},{"uai":"0601782L","type":"lycee","name":"Lycée d'enseignement général et technologique agricole de l'Oise à Airion","commune":"Airion","secteur":"Privé","dep":"060","lat":2.41636,"lon":49.425326},{"uai":"0601793Y","type":"ecole","name":"Ecole maternelle","commune":"Ressons-sur-Matz","secteur":"Privé","dep":"060","lat":2.74686,"lon":49.539917},{"uai":"0601821D","type":"college","name":"Collège Emile Lambert","commune":"Villers-Saint-Paul","secteur":"Privé","dep":"060","lat":2.49062,"lon":49.292149},{"uai":"0601826J","type":"lycee","name":"Lycée général et technologique Hugues Capet","commune":"Senlis","secteur":"Privé","dep":"060","lat":2.57127,"lon":49.191623},{"uai":"0601831P","type":"lycee","name":"Lycée général et technologique privé St Joseph du Moncel","commune":"Pont-Sainte-Maxence","secteur":"Privé","dep":"060","lat":2.606131,"lon":49.299949},{"uai":"0601834T","type":"college","name":"Collège Jacques Yves Cousteau","commune":"Breuil-le-Vert","secteur":"Privé","dep":"060","lat":2.419041,"lon":49.361411},{"uai":"0601838X","type":"ecole","name":"Ecole primaire Jacques Corbière","commune":"Bulles","secteur":"Privé","dep":"060","lat":2.32482,"lon":49.462016},{"uai":"0601841A","type":"ecole","name":"Ecole élémentaire Charles Péguy","commune":"Crépy-en-Valois","secteur":"Privé","dep":"060","lat":2.88712,"lon":49.224091},{"uai":"0601845E","type":"lycee","name":"Lycée professionnel de la Forêt - Lycée des métiers des services aux entreprises","commune":"Chantilly","secteur":"Privé","dep":"060","lat":2.46455,"lon":49.181674},{"uai":"0601852M","type":"ecole","name":"Ecole élémentaire Philippe Cousteau","commune":"Beauvais","secteur":"Privé","dep":"060","lat":2.075161,"lon":49.416771},{"uai":"0601861X","type":"ecole","name":"Ecole élémentaire L'Obier","commune":"Nogent-sur-Oise","secteur":"Privé","dep":"060","lat":2.46294,"lon":49.275167},{"uai":"0601863Z","type":"lycee","name":"Lycée polyvalent Charles de Gaulle - Lycée des métiers de la restauration et du tourisme","commune":"Compiègne","secteur":"Privé","dep":"060","lat":2.78029,"lon":49.385326},{"uai":"0601864A","type":"lycee","name":"Lycée d'enseignement général et technologique André Malraux","commune":"Montataire","secteur":"Privé","dep":"060","lat":2.42536,"lon":49.260767},{"uai":"0601887A","type":"ecole","name":"Ecole primaire Weissenburger","commune":"Noyon","secteur":"Privé","dep":"060","lat":2.995031,"lon":49.580719},{"uai":"0601889C","type":"ecole","name":"Ecole élémentaire du Parc","commune":"Agnetz","secteur":"Privé","dep":"060","lat":2.38618,"lon":49.380705},{"uai":"0601898M","type":"ecole","name":"Ecole élémentaire Bois Saint Denis Philippe Courboin","commune":"Chantilly","secteur":"Privé","dep":"060","lat":2.456199,"lon":49.17854},{"uai":"0601941J","type":"ecole","name":"Ecole élémentaire Roger Blondeau","commune":"Chaumont-en-Vexin","secteur":"Privé","dep":"060","lat":1.88428,"lon":49.263272},{"uai":"0601943L","type":"ecole","name":"Ecole maternelle la Venue","commune":"Bresles","secteur":"Privé","dep":"060","lat":2.24491,"lon":49.408747},{"uai":"0601944M","type":"ecole","name":"Ecole primaire Charles Lahille","commune":"Chambly","secteur":"Privé","dep":"060","lat":2.25077,"lon":49.168007},{"uai":"0602003B","type":"ecole","name":"Ecole élémentaire H. Bayard","commune":"Breteuil","secteur":"Privé","dep":"060","lat":2.291159,"lon":49.632711},{"uai":"0602105M","type":"ecole","name":"Ecole primaire privée hors contrat Bilingual Montessori School","commune":"Chantilly","secteur":"Privé","dep":"060","lat":2.458249,"lon":49.185368},{"uai":"0602123G","type":"ecole","name":"Ecole primaire privée Open World","commune":"Lacroix-Saint-Ouen","secteur":"Privé","dep":"060","lat":2.785783,"lon":49.378479},{"uai":"0602132S","type":"college","name":"Collège Al Ghazali","commune":"Creil","secteur":"Privé","dep":"060","lat":2.462954,"lon":49.249862},{"uai":"0602148J","type":"lycee","name":"Micro-lycée de creil","commune":"Creil","secteur":"Privé","dep":"060","lat":2.47389,"lon":49.258723},{"uai":"0610002W","type":"lycee","name":"Lycée polyvalent Navarre Leclerc - Lycée des métiers du tertiaire et des services à la personne","commune":"Alençon","secteur":"Privé","dep":"061","lat":0.091589,"lon":48.409602},{"uai":"0610033E","type":"college","name":"Collège Emile Chartier","commune":"Mortagne-au-Perche","secteur":"Privé","dep":"061","lat":0.54655,"lon":48.51469},{"uai":"0610082H","type":"ecole","name":"Ecole maternelle Galleron","commune":"L'Aigle","secteur":"Privé","dep":"061","lat":0.62744,"lon":48.76215},{"uai":"0610217E","type":"ecole","name":"Ecole primaire","commune":"Montchevrel","secteur":"Privé","dep":"061","lat":0.33805,"lon":48.573726},{"uai":"0610249P","type":"ecole","name":"Ecole primaire Ronfeugerai","commune":"Athis-Val de Rouvre","secteur":"Privé","dep":"061","lat":-0.476019,"lon":48.781895},{"uai":"0610269L","type":"ecole","name":"Ecole primaire (St-Didier-sous-Ecouves)","commune":"L'Orée-d'Ecouves","secteur":"Privé","dep":"061","lat":-0.038,"lon":48.536352},{"uai":"0610385M","type":"ecole","name":"Ecole primaire du grand haze","commune":"Briouze","secteur":"Privé","dep":"061","lat":-0.36788,"lon":48.700686},{"uai":"0610455N","type":"ecole","name":"Ecole primaire des mots tordus","commune":"La Ferrière-aux-Etangs","secteur":"Privé","dep":"061","lat":-0.51729,"lon":48.664441},{"uai":"0610459T","type":"ecole","name":"Ecole primaire des sources","commune":"La Ferrière-Bochard","secteur":"Privé","dep":"061","lat":-0.028851,"lon":48.412096},{"uai":"0610507V","type":"ecole","name":"Ecole élémentaire","commune":"Larré","secteur":"Privé","dep":"061","lat":0.163242,"lon":48.494635},{"uai":"0610521K","type":"ecole","name":"Ecole élémentaire Jean et Marcelle Etournay (Mâle)","commune":"Val-au-Perche","secteur":"Privé","dep":"061","lat":0.736659,"lon":48.271363},{"uai":"0610540F","type":"ecole","name":"Ecole élémentaire","commune":"Montmerrei","secteur":"Privé","dep":"061","lat":0.033415,"lon":48.634331},{"uai":"0610586F","type":"ecole","name":"Ecole primaire Louis Dubruel (La Rouge)","commune":"Val-au-Perche","secteur":"Privé","dep":"061","lat":0.707091,"lon":48.285721},{"uai":"0610606C","type":"ecole","name":"Ecole des Cormiers","commune":"Saint-Germain-de-la-Coudre","secteur":"Privé","dep":"061","lat":0.60226,"lon":48.279783},{"uai":"0610627A","type":"ecole","name":"Ecole primaire (St-Maurice-du-Désert)","commune":"Les Monts d'Andaine","secteur":"Privé","dep":"061","lat":-0.3967,"lon":48.583014},{"uai":"0610657H","type":"ecole","name":"Ecole primaire des écureuils","commune":"La Selle-la-Forge","secteur":"Privé","dep":"061","lat":-0.54306,"lon":48.732231},{"uai":"0610709P","type":"college","name":"Collège privé Notre-Dame","commune":"La Ferté Macé","secteur":"Privé","dep":"061","lat":-0.35457,"lon":48.589103},{"uai":"0610716X","type":"college","name":"Section d'enseignement professionnel du Lycée privé Saint Francois de Sales","commune":"Alençon","secteur":"Privé","dep":"061","lat":0.098009,"lon":48.430343},{"uai":"0610721C","type":"lycee","name":"Lycée professionnel privé Jeanne d'Arc","commune":"Argentan","secteur":"Privé","dep":"061","lat":-0.01472,"lon":48.74657},{"uai":"0610742A","type":"lycee","name":"Section d'enseignement général et professionnel adapté du collège Jean Racine","commune":"Alençon","secteur":"Privé","dep":"061","lat":0.08817,"lon":48.423121},{"uai":"0610746E","type":"lycee","name":"Lycée professionnel agricole d'Alençon","commune":"Alençon","secteur":"Privé","dep":"061","lat":0.089186,"lon":48.411277},{"uai":"0610793F","type":"ecole","name":"Ecole maternelle Jean-Pierre Pelletier","commune":"Sées","secteur":"Privé","dep":"061","lat":0.1723,"lon":48.598231},{"uai":"0610801P","type":"ecole","name":"Ecole primaire Marcel Pagnol","commune":"Messei","secteur":"Privé","dep":"061","lat":-0.53409,"lon":48.712154},{"uai":"0610805U","type":"ecole","name":"Pôle scolaire Pierre Perret","commune":"Soligny-la-Trappe","secteur":"Privé","dep":"061","lat":0.53797,"lon":48.617938},{"uai":"0610849S","type":"ecole","name":"Ecole primaire privée Sacré-Coeur","commune":"Chanu","secteur":"Privé","dep":"061","lat":-0.676449,"lon":48.729334},{"uai":"0610851U","type":"ecole","name":"Ecole primaire privée les Oisillons","commune":"Flers","secteur":"Privé","dep":"061","lat":-0.59037,"lon":48.740281},{"uai":"0610857A","type":"ecole","name":"Ecole primaire privée Sacré-Coeur","commune":"Athis-Val de Rouvre","secteur":"Privé","dep":"061","lat":-0.49803,"lon":48.809648},{"uai":"0610880A","type":"ecole","name":"Ecole primaire privée Notre Dame   Saint Louis","commune":"Briouze","secteur":"Privé","dep":"061","lat":-0.36385,"lon":48.699542},{"uai":"0610884E","type":"ecole","name":"Ecole primaire privée Sacré-Coeur (Ecouché)","commune":"Ecouché-les-Vallées","secteur":"Privé","dep":"061","lat":-0.122439,"lon":48.717385},{"uai":"0610889K","type":"ecole","name":"Ecole primaire privée Sacré-Coeur","commune":"Carrouges","secteur":"Privé","dep":"061","lat":-0.14668,"lon":48.56653},{"uai":"0610893P","type":"ecole","name":"Ecole primaire privée Bignon","commune":"Mortagne-au-Perche","secteur":"Privé","dep":"061","lat":0.54975,"lon":48.520493},{"uai":"0610901Y","type":"ecole","name":"Pôle scolaire Thomas Pesquet","commune":"Belforêt-en-Perche","secteur":"Privé","dep":"061","lat":0.51919,"lon":48.373704},{"uai":"0610904B","type":"ecole","name":"Ecole maternelle","commune":"Saint-Sulpice-sur-Risle","secteur":"Privé","dep":"061","lat":0.65726,"lon":48.779842},{"uai":"0610942T","type":"ecole","name":"Ecole primaire","commune":"Boucé","secteur":"Privé","dep":"061","lat":-0.08899,"lon":48.64417},{"uai":"0610944V","type":"ecole","name":"Ecole primaire Val de Rouvre","commune":"Athis-Val de Rouvre","secteur":"Privé","dep":"061","lat":-0.40855,"lon":48.824532},{"uai":"0610957J","type":"lycee","name":"Section d'enseignement général et professionnel adapté du collège Honoré de Balzac","commune":"Alençon","secteur":"Privé","dep":"061","lat":0.076904,"lon":48.438914},{"uai":"0610958K","type":"college","name":"Collège Jean Moulin","commune":"Gacé","secteur":"Privé","dep":"061","lat":0.298325,"lon":48.792083},{"uai":"0610970Y","type":"college","name":"Collège Jacques Prévert","commune":"Domfront en Poiraie","secteur":"Privé","dep":"061","lat":-0.64476,"lon":48.587153},{"uai":"0610998D","type":"ecole","name":"Ecole primaire Maréchal Leclerc de Hauteclocque","commune":"Carrouges","secteur":"Privé","dep":"061","lat":-0.142249,"lon":48.566074},{"uai":"0611000F","type":"ecole","name":"Ecole primaire Jean Helion (Couterne)","commune":"Rives d'Andaine","secteur":"Privé","dep":"061","lat":-0.41427,"lon":48.511641},{"uai":"0611001G","type":"ecole","name":"Ecole primaire A. Bailly (Tourouvre)","commune":"Tourouvre au Perche","secteur":"Privé","dep":"061","lat":0.6515,"lon":48.591631},